Number,Code,Name,Lat,Lon,State,Category,fuel type,name-sheet,state-sheet,,,,,,,
1,2,Bankhead Dam,33.45867,-87.3568,AL,EXCLUDE,WAT,Bankhead Dam,AL,,,,,,,
2,3,Barry,31.0069,-88.0103,AL,COALST,BIT,Barry,AL,,,,,,,
3,4,Walter Bouldin Dam,32.58389,-86.2831,AL,EXCLUDE,WAT,Walter Bouldin Dam,AL,,,,,,,
4,7,Gadsden,34.0128,-85.9708,AL,COALST,BIT,Gadsden,AL,,,,,,,
5,8,Gorgas,33.64434,-87.1965,AL,COALST,BIT,Gorgas,AL,,,,,,,
6,9,Copper,31.7569,-106.375,TX,EXCLUDE,NG,Copper,TX,,,,,,,
7,10,Greene County,32.6017,-87.7811,AL,COALST,BIT,Greene County,AL,,,,,,,
8,11,H Neely Henry Dam,33.7845,-86.0524,AL,EXCLUDE,WAT,H Neely Henry Dam,AL,,,,,,,
9,12,Holt Dam,33.2553,-87.4495,AL,EXCLUDE,WAT,Holt Dam,AL,,,,,,,
10,13,Jordan Dam,32.6189,-86.2548,AL,EXCLUDE,WAT,Jordan Dam,AL,,,,,,,
11,14,Logan Martin Dam,33.42588,-86.3375,AL,EXCLUDE,WAT,Logan Martin Dam,AL,,,,,,,
12,15,Lay Dam,32.9633,-86.5187,AL,EXCLUDE,WAT,Lay Dam,AL,,,,,,,
13,16,Martin Dam,32.68039,-85.9114,AL,EXCLUDE,WAT,Martin Dam,AL,,,,,,,
14,17,Mitchell Dam,32.80603,-86.4449,AL,EXCLUDE,WAT,Mitchell Dam,AL,,,,,,,
15,18,Lewis Smith Dam,33.9406,-87.1077,AL,EXCLUDE,WAT,Lewis Smith Dam,AL,,,,,,,
16,19,Thurlow Dam,32.53544,-85.8876,AL,EXCLUDE,WAT,Thurlow Dam,AL,,,,,,,
17,20,Weiss Dam,34.17214,-85.7538,AL,EXCLUDE,WAT,Weiss Dam,AL,,,,,,,
18,21,Yates Dam,32.5743,-85.8901,AL,EXCLUDE,WAT,Yates Dam,AL,,,,,,,
19,26,E C Gaston,33.24421,-86.4581,AL,COALST,BIT,E C Gaston,AL,,,,,,,
20,30,Madelia,44.0525,-94.4153,MN,EXCLUDE,NG,Madelia,MN,,,,,,,
21,34,Rollins,39.13426,-120.953,CA,EXCLUDE,WAT,Rollins,CA,,,,,,,
22,38,Millers Ferry,32.10088,-87.3998,AL,EXCLUDE,WAT,Millers Ferry,AL,,,,,,,
23,46,Browns Ferry,34.7042,-87.1189,AL,EXCLUDE,NUC,Browns Ferry,AL,,,,,,,
24,47,Colbert,34.7439,-87.8486,AL,COALST,BIT,Colbert,AL,,,,,,,
25,48,Guntersville,34.42127,-86.3939,AL,EXCLUDE,WAT,Guntersville,AL,,,,,,,
26,49,Wheeler Dam,34.8069,-87.3819,AL,EXCLUDE,WAT,Wheeler Dam,AL,,,,,,,
27,50,Widows Creek,34.88302,-85.7553,AL,COALST,BIT,Widows Creek,AL,,,,,,,
28,51,Dolet Hills,32.03056,-93.5692,LA,COALST,LIG,Dolet Hills,LA,,,,,,,
29,53,Gantt,31.4033,-86.4795,AL,EXCLUDE,WAT,Gantt,AL,,,,,,,
30,54,J K Smith,37.8833,-84.1017,KY,EXCLUDE,NG,J K Smith,KY,,,,,,,
31,55,Point A,31.36115,-86.5183,AL,EXCLUDE,WAT,Point A,AL,,,,,,,
32,56,Charles R Lowman,31.48802,-87.9107,AL,COALST,BIT,Charles R Lowman,AL,,,,,,,
33,59,Platte,40.85477,-98.3482,NE,COALST,SUB,Platte,NE,,,,,,,
34,60,Whelan Energy Center,40.58087,-98.3124,NE,COALST,SUB,Whelan Energy Center,NE,,,,,,,
35,62,Annex Creek,58.3176,-134.101,AK,EXCLUDE,WAT,Annex Creek,AK,,,,,,,
36,63,Gold Creek,58.3107,-134.417,AK,EXCLUDE,WAT,Gold Creek,AK,,,,,,,
37,64,Lemon Creek,58.3536,-134.495,AK,EXCLUDE,DFO,Lemon Creek,AK,,,,,,,
38,65,Salmon Creek,58.3269,-134.463,AK,EXCLUDE,WAT,Salmon Creek 1,AK,,,,,,,
39,66,Skagway,59.4545,-135.313,AK,EXCLUDE,WAT,Skagway,AK,,,,,,,
40,69,Haines,59.2358,-135.445,AK,EXCLUDE,DFO,Haines,AK,,,,,,,
41,70,Swan Lake,55.61389,-131.354,AK,EXCLUDE,WAT,Swan Lake,AK,,,,,,,
42,71,Terror Lake,57.6861,-152.895,AK,EXCLUDE,WAT,Terror Lake,AK,,,,,,,
43,72,Venice Hydro,34.01135,-118.417,CA,EXCLUDE,WAT,Venice,CA,,,,,,,
44,75,Anchorage,61.2221,-149.866,AK,EXCLUDE,NG,Anchorage 1,AK,,,,,,,
45,77,Eklutna Hydro Project,61.47521,-149.15,AK,EXCLUDE,WAT,Eklutna Hydro Project,AK,,,,,,,
46,78,Snettisham,58.1415,-133.737,AK,EXCLUDE,WAT,Snettisham,AK,,,,,,,
47,79,Aurora Energy LLC Chena,64.84774,-147.735,AK,EXCLUDE,SUB,Aurora Energy LLC Chena,AK,,,,,,,
48,84,Ketchikan,55.34464,-131.633,AK,EXCLUDE,WAT,Ketchikan,AK,,,,,,,
49,85,S W Bailey,55.3633,-131.678,AK,EXCLUDE,DFO,S W Bailey,AK,,,,,,,
50,87,Escalante,35.4159,-108.082,NM,COALST,SUB,Escalante,NM,,,,,,,
51,88,Ashokan,41.949,-74.2063,NY,EXCLUDE,WAT,Ashokan,NY,,,,,,,
52,90,Snake River,64.50592,-165.429,AK,EXCLUDE,DFO,Snake River,AK,,,,,,,
53,91,Petersburg,56.81104,-132.957,AK,EXCLUDE,WAT,Petersburg,AK,,,,,,,
54,92,Seward (AK),60.1083,-149.442,AK,EXCLUDE,DFO,Seward,AK,,,,,,,
55,93,Blue Lake Hydro,57.0516,-135.23,AK,EXCLUDE,WAT,Blue Lake,AK,,,,,,,
56,95,Wrangell,56.4522,-132.368,AK,EXCLUDE,DFO,Wrangell,AK,,,,,,,
57,96,Beluga,61.1861,-151.036,AK,EXCLUDE,NG,Beluga,AK,,,,,,,
58,99,Frederickson,47.07972,-122.365,WA,EXCLUDE,NG,Frederickson,WA,,,,,,,
59,100,South Consolidated,33.46648,-111.781,AZ,EXCLUDE,WAT,South Consolidated,AZ,,,,,,,
60,104,J S Eastwood,37.14793,-119.257,CA,EXCLUDE,WAT,J S Eastwood,CA,,,,,,,
61,108,Holcomb,37.9308,-100.973,KS,COALST,SUB,Holcomb,KS,,,,,,,
62,109,Dillingham,59.6708,-157.89,AK,EXCLUDE,DFO,Dillingham,AK,,,,,,,
63,112,Childs,34.35111,-111.701,AZ,EXCLUDE,WAT,Childs,AZ,,,,,,,
64,113,Cholla,34.9394,-110.303,AZ,COALST,SUB,Cholla,AZ,,,,,,,
65,114,Douglas,31.36412,-109.554,AZ,EXCLUDE,DFO,Douglas,AZ,,,,,,,
66,115,Irving,34.40222,-111.617,AZ,EXCLUDE,WAT,Irving,AZ,,,,,,,
67,116,Ocotillo,33.4225,-111.912,AZ,OGST,NG,Ocotillo,AZ,,,,,,,
68,117,West Phoenix,33.4417,-112.158,AZ,NGCC,NG,West Phoenix,AZ,,,,,,,
69,118,Saguaro,32.5517,-111.3,AZ,OGST,NG,Saguaro,AZ,,,,,,,
70,120,Yucca,32.7214,-114.711,AZ,EXCLUDE,NG,Yucca,AZ,,,,,,,
71,124,Demoss Petrie,32.25227,-110.992,AZ,EXCLUDE,NG,Demoss Petrie,AZ,,,,,,,
72,126,H Wilson Sundt Generating Station,32.16,-110.905,AZ,OGST,NG,H Wilson Sundt Generating Station,AZ,,,,,,,
73,127,Oklaunion,34.0825,-99.1753,TX,COALST,SUB,Oklaunion,TX,,,,,,,
74,130,Cross,33.37139,-80.1133,SC,COALST,BIT,Cross,SC,,,,,,,
75,136,Seminole (FL),29.73306,-81.6328,FL,COALST,BIT,Seminole,FL,,,,,,,
76,141,Agua Fria,33.5561,-112.215,AZ,OGST,NG,Agua Fria,AZ,,,,,,,
77,143,Crosscut,33.43938,-111.946,AZ,EXCLUDE,NG,Crosscut,AZ,,,,,,,
78,145,Horse Mesa,33.5907,-111.344,AZ,EXCLUDE,WAT,Horse Mesa,AZ,,,,,,,
79,147,Kyrene,33.3556,-111.935,AZ,OGST,NG,Kyrene,AZ,,,,,,,
80,148,Mormon Flat,33.5536,-111.443,AZ,EXCLUDE,WAT,Mormon Flat,AZ,,,,,,,
81,149,Roosevelt,33.6711,-111.162,AZ,EXCLUDE,WAT,Roosevelt,AZ,,,,,,,
82,150,Stewart Mountain,33.5661,-111.536,AZ,EXCLUDE,WAT,Stewart Mountain,AZ,,,,,,,
83,151,McClure,37.62936,-120.931,CA,EXCLUDE,DFO,McClure,CA,,,,,,,
84,152,Davis Dam,35.19704,-114.571,AZ,EXCLUDE,WAT,Davis Dam,AZ,,,,,,,
85,153,Glen Canyon Dam,36.93661,-111.484,AZ,EXCLUDE,WAT,Glen Canyon Dam,AZ,,,,,,,
86,154,Hoover Dam (NV),36.01551,-114.738,NV,EXCLUDE,WAT,Hoover Dam,NV,,,,,,,
87,159,Lake Creek Dam,40.49363,-111.313,UT,EXCLUDE,WAT,Lake Creek,UT,,,,,,,
88,160,Apache Station,32.0603,-109.893,AZ,EXCLUDE,NG,Apache Station,AZ,,,,,,,
89,161,Turlock Lake,37.61146,-120.595,CA,EXCLUDE,WAT,Turlock Lake,CA,,,,,,,
90,162,Hickman,37.62154,-120.746,CA,EXCLUDE,WAT,Hickman,CA,,,,,,,
91,164,Big Pine,24.57917,-81.685,FL,EXCLUDE,DFO,Big Pine,FL,,,,,,,
92,165,GREC,36.19028,-95.2894,OK,COALST,SUB,GRDA,OK,,,,,,,
93,166,Carpenter,34.4425,-93.0262,AR,EXCLUDE,WAT,Carpenter,AR,,,,,,,
94,167,Cecil Lynch,34.7535,-92.1987,AR,OGST,NG,Cecil Lynch,AR,,,,,,,
95,168,Hamilton Moses,34.9806,-90.8722,AR,OGST,NG,Hamilton Moses,AR,,,,,,,
96,169,Harvey Couch,33.3592,-93.4649,AR,EXCLUDE,NG,Harvey Couch,AR,,,,,,,
97,170,Lake Catherine,34.4341,-92.9049,AR,OGST,NG,Lake Catherine,AR,,,,,,,
98,171,Mabelvale,34.636,-92.4096,AR,EXCLUDE,NG,Mabelvale,AR,,,,,,,
99,172,Osceola (AR),35.6975,-90.0053,AR,EXCLUDE,DFO,Osceola,AR,,,,,,,
100,173,Robert E Ritchie,34.4629,-90.5987,AR,OGST,NG,Robert E Ritchie,AR,,,,,,,
101,174,Remmel,34.4272,-92.8941,AR,EXCLUDE,WAT,Remmel,AR,,,,,,,
102,180,Volta,40.45193,-121.862,CA,EXCLUDE,WAT,Volta 2,CA,,,,,,,
103,182,Beaver Dam,36.42151,-93.8474,AR,EXCLUDE,WAT,Beaver,AR,,,,,,,
104,187,Degray,34.21191,-93.111,AR,EXCLUDE,WAT,Degray,AR,,,,,,,
105,188,Greers Ferry Lake,35.5207,-91.9953,AR,EXCLUDE,WAT,Greers Ferry Lake,AR,,,,,,,
106,192,192,192,192,192,EXCLUDE,DFO,Paragould,AR,,,,,,,
107,193,Municipal Light,36.3858,-90.1867,AR,EXCLUDE,DFO,Municipal Light,AR,,,,,,,
108,195,Narrows (AR),34.14843,-93.7152,AR,EXCLUDE,WAT,Narrows,AR,,,,,,,
109,196,Norfork,36.2491,-92.2401,AR,EXCLUDE,WAT,Norfork,AR,,,,,,,
110,197,Blakely Mountain,34.57098,-93.1944,AR,EXCLUDE,WAT,Blakely Mountain,AR,,,,,,,
111,198,Bull Shoals,36.3635,-92.5763,AR,EXCLUDE,WAT,Bull Shoals,AR,,,,,,,
112,199,Dardanelle,35.2503,-93.1686,AR,EXCLUDE,WAT,Dardanelle,AR,,,,,,,
113,201,Thomas Fitzhugh,35.46238,-93.8049,AR,NGCC,NG,Thomas Fitzhugh,AR,,,,,,,
114,202,Carl Bailey,35.2601,-91.3634,AR,OGST,NG,Carl Bailey,AR,,,,,,,
115,203,McClellan (AR),33.5648,-92.7917,AR,OGST,NG,McClellan,AR,,,,,,,
116,204,Clinton Power Station,40.1719,-88.8339,IL,EXCLUDE,NUC,Clinton Power Station,IL,,,,,,,
117,207,St Johns River Power Park,30.4308,-81.5508,FL,COALST,BIT,St Johns River Power Park,FL,,,,,,,
118,210,Wolf Creek Generating Station,38.23926,-95.6898,KS,EXCLUDE,NUC,Wolf Creek Generating Station,KS,,,,,,,
119,214,Alta Powerhouse,39.21598,-120.804,CA,EXCLUDE,WAT,Alta Powerhouse,CA,not in EIA,http://www.eia.gov/opendata/qb.cfm?category=902934,AR,exclude,,,
120,215,Angels,38.07194,-120.539,CA,EXCLUDE,WAT,Angels,CA,,,,,,,
121,217,Balch,36.90914,-119.088,CA,EXCLUDE,WAT,Balch 1,CA,,,,,,,
122,218,Balch,36.90891,-119.088,CA,EXCLUDE,WAT,Balch 2,CA,,,,,,,
123,219,Belden,40.00745,-121.249,CA,EXCLUDE,WAT,Belden,CA,,,,,,,
124,220,Bucks Creek,39.91062,-121.328,CA,EXCLUDE,WAT,Bucks Creek,CA,,,,,,,
125,221,Butt Valley,40.17566,-121.191,CA,EXCLUDE,WAT,Butt Valley,CA,,,,,,,
126,222,Caribou,40.08548,-121.148,CA,EXCLUDE,WAT,Caribou 1,CA,,,,,,,
127,223,Caribou,40.086,-121.149,CA,EXCLUDE,WAT,Caribou 2,CA,,,,,,,
128,224,Centerville,39.78888,-121.657,CA,EXCLUDE,WAT,Centerville,CA,,,,,,,
129,225,Chili Bar,38.77176,-120.813,CA,EXCLUDE,WAT,Chili Bar,CA,,,,,,,
130,226,Coal Canyon,39.60504,-121.601,CA,EXCLUDE,WAT,Coal Canyon,CA,,,,,,,
131,227,Coleman PH,40.40465,-122.122,CA,EXCLUDE,WAT,Coleman,CA,,,,,,,
132,228,Contra Costa,38.0192,-121.764,CA,OGST,NG,Contra Costa,CA,,,,,,,
133,229,Cow Creek,40.57082,-122.021,CA,EXCLUDE,WAT,Cow Creek,CA,,,,,,,
134,231,Cresta,39.82591,-121.41,CA,EXCLUDE,WAT,Cresta,CA,,,,,,,
135,232,De Sabla,39.86927,-121.632,CA,EXCLUDE,WAT,De Sabla,CA,,,,,,,
136,233,Deer Creek PH,39.29807,-120.844,CA,EXCLUDE,WAT,Deer Creek,CA,,,,,,,
137,235,Drum,39.25687,-120.767,CA,EXCLUDE,WAT,Drum 1,CA,,,,,,,
138,236,Drum,39.25739,-120.767,CA,EXCLUDE,WAT,Drum 2,CA,,,,,,,
139,237,Dutch Flat,39.21699,-120.836,CA,EXCLUDE,WAT,Dutch Flat,CA,,,,,,,
140,238,El Dorado,38.79357,-120.619,CA,EXCLUDE,WAT,El Dorado,CA,,,,,,,
141,239,Electra,38.33099,-120.67,CA,EXCLUDE,WAT,Electra,CA,,,,,,,
142,240,Haas,36.92742,-119.02,CA,EXCLUDE,WAT,Haas,CA,,,,,,,
143,241,Halsey,38.95699,-121.042,CA,EXCLUDE,WAT,Halsey,CA,,,,,,,
144,242,Hamilton Branch,40.26871,-121.089,CA,EXCLUDE,WAT,Hamilton Branch,CA,,,,,,,
145,243,Hat Creek,40.9293,-121.544,CA,EXCLUDE,WAT,Hat Creek 1,CA,,,,,,,
146,244,Hat Creek,40.96068,-121.549,CA,EXCLUDE,WAT,Hat Creek 2,CA,,,,,,,
147,246,Humboldt Bay,40.7415,-124.21,CA,EXCLUDE,NG,Humboldt Bay,CA,,,,,,,
148,247,Hunters Point,37.73361,-122.39,CA,EXCLUDE,NG,Hunters Point,CA,,,,,,,
149,248,Inskip,40.40099,-121.966,CA,EXCLUDE,WAT,Inskip,CA,,,,,,,
150,249,James B Black,40.9923,-121.975,CA,EXCLUDE,WAT,James B Black,CA,,,,,,,
151,250,Kerckhoff,37.09249,-119.553,CA,EXCLUDE,WAT,Kerckhoff,CA,,,,,,,
152,253,Kilarc,40.67783,-121.873,CA,EXCLUDE,WAT,Kilarc,CA,,,,,,,
153,254,Kings River PH,36.88817,-119.159,CA,EXCLUDE,WAT,Kings River,CA,,,,,,,
154,255,Lime Saddle,39.69876,-121.571,CA,EXCLUDE,WAT,Lime Saddle,CA,,,,,,,
155,258,Merced Falls,37.52301,-120.33,CA,EXCLUDE,WAT,Merced Falls,CA,,,,,,,
156,259,Dynegy Morro Bay LLC,35.37217,-120.857,CA,OGST,NG,Dynegy Morro Bay LLC,CA,,,,,,,
157,260,Dynegy Moss Landing Power Plant,36.80484,-121.782,CA,OGST,NG,Dynegy Moss Landing Power Plant,CA,,,,,,,
158,261,Murphys,38.14709,-120.446,CA,EXCLUDE,WAT,Murphys,CA,,,,,,,
159,262,Narrows PH,39.2364,-121.272,CA,EXCLUDE,WAT,Narrows,CA,,,,,,,
160,264,Phoenix,38.0321,-120.327,CA,EXCLUDE,WAT,Phoenix,CA,,,,,,,
161,265,Pit,40.99084,-121.498,CA,EXCLUDE,WAT,Pit 1,CA,,,,,,,
162,266,Pit,40.99745,-121.748,CA,EXCLUDE,WAT,Pit 3,CA,,,,,,,
163,267,Pit,40.98636,-121.849,CA,EXCLUDE,WAT,Pit 4,CA,,,,,,,
164,268,Pit,40.9862,-121.978,CA,EXCLUDE,WAT,Pit 5,CA,,,,,,,
165,269,Pit,40.92257,-121.993,CA,EXCLUDE,WAT,Pit 6,CA,,,,,,,
166,270,Pit,40.84746,-121.991,CA,EXCLUDE,WAT,Pit 7,CA,,,,,,,
167,271,Pittsburg Power,38.03917,-121.894,CA,EXCLUDE,NG,Pittsburg Power,CA,,,,,,,
168,272,Poe,39.72289,-121.47,CA,EXCLUDE,WAT,Poe,CA,,,,,,,
169,274,Potter Valley,39.36179,-123.128,CA,EXCLUDE,WAT,Potter Valley,CA,,,,,,,
170,275,Rock Creek,39.90521,-121.345,CA,EXCLUDE,WAT,Rock Creek,CA,,,,,,,
171,276,San Joaquin,37.20323,-119.498,CA,EXCLUDE,WAT,San Joaquin 2,CA,,,,,,,
172,277,San Joaquin,37.25372,-119.519,CA,EXCLUDE,WAT,San Joaquin 3,CA,,,,,,,
173,279,Salt Springs,38.49791,-120.218,CA,EXCLUDE,WAT,Salt Springs,CA,,,,,,,
174,280,South,40.3954,-121.879,CA,EXCLUDE,WAT,South,CA,,,,,,,
175,281,Spaulding,39.32461,-120.645,CA,EXCLUDE,WAT,Spaulding 1,CA,,,,,,,
176,282,Spaulding,39.32459,-120.645,CA,EXCLUDE,WAT,Spaulding 2,CA,,,,,,,
177,283,Spaulding,39.33768,-120.635,CA,EXCLUDE,WAT,Spaulding 3,CA,,,,,,,
178,284,Spring Gap,38.18653,-120.112,CA,EXCLUDE,WAT,Spring Gap,CA,,,,,,,
179,285,Stanislaus,38.13905,-120.37,CA,EXCLUDE,WAT,Stanislaus,CA,,,,,,,
180,286,Geysers Unit,38.777,-122.745,CA,EXCLUDE,GEO,Geysers Unit 5-20,CA,,,,,,,
181,287,Tiger Creek,38.44929,-120.493,CA,EXCLUDE,WAT,Tiger Creek,CA,,,,,,,
182,289,Tule River,36.16308,-118.707,CA,EXCLUDE,WAT,Tule River,CA,,,,,,,
183,290,Volta,40.45911,-121.867,CA,EXCLUDE,WAT,Volta 1,CA,,,,,,,
184,291,West Point PH,38.4209,-120.55,CA,EXCLUDE,WAT,West Point,CA,,,,,,,
185,292,Wise,38.88986,-121.099,CA,EXCLUDE,WAT,Wise,CA,,,,,,,
186,293,A G Wishon,37.15105,-119.505,CA,EXCLUDE,WAT,A G Wishon,CA,,,,,,,
187,294,Copco,41.97891,-122.335,CA,EXCLUDE,WAT,Copco 1,CA,,,,,,,
188,295,Copco,41.97572,-122.358,CA,EXCLUDE,WAT,Copco 2,CA,,,,,,,
189,296,Fall Creek,41.98561,-122.36,CA,EXCLUDE,WAT,Fall Creek,CA,,,,,,,
190,297,Iron Gate,41.93298,-122.437,CA,EXCLUDE,WAT,Iron Gate,CA,,,,,,,
191,298,Limestone,31.4219,-96.2525,TX,COALST,SUB,Limestone,TX,,,,,,,
192,299,Blundell,38.4889,-112.853,UT,EXCLUDE,GEO,Blundell,UT,,,,,,,
193,300,Division,32.68167,-117.12,CA,EXCLUDE,DFO,Division,CA,,,,,,,
194,301,El Cajon,32.7958,-116.972,CA,EXCLUDE,NG,El Cajon,CA,,,,,,,
195,302,Encina,33.1361,-117.336,CA,OGST,NG,Encina,CA,,,,,,,
196,303,Kearny,32.834,-117.134,CA,EXCLUDE,NG,Kearny,CA,,,,,,,
197,305,Miramar,32.8761,-117.166,CA,EXCLUDE,NG,Miramar,CA,,,,,,,
198,306,Naval Station,32.68167,-117.12,CA,EXCLUDE,NG,Naval Station,CA,,,,,,,
199,307,North Island,32.705,-117.19,CA,EXCLUDE,DFO,North Island,CA,,,,,,,
200,309,309,309,309,309,EXCLUDE,DFO,Silver Gate,CA,,,,,,,
201,312,312,312,312,312,EXCLUDE,MSW,Refuse & Coal,OH,,,,,,,
202,313,Green Lake,56.98628,-135.123,AK,EXCLUDE,WAT,Green Lake,AK,,,,,,,
203,314,Drop,32.6731,-115.392,CA,EXCLUDE,WAT,Drop 5,CA,,,,,,,
204,315,AES Alamitos LLC,33.7688,-118.101,CA,OGST,NG,AES Alamitos LLC,CA,,,,,,,
205,316,Sepulveda Canyon,34.0969,-118.48,CA,EXCLUDE,WAT,Sepulveda Canyon,CA,,,,,,,
206,317,Big Creek,37.2042,-119.24,CA,EXCLUDE,WAT,Big Creek 1,CA,,,,,,,
207,318,Big Creek,37.2,-119.307,CA,EXCLUDE,WAT,Big Creek 2,CA,,,,,,,
208,319,Big Creek,37.14852,-119.387,CA,EXCLUDE,WAT,Big Creek 3,CA,,,,,,,
209,320,Big Creek,37.139,-119.49,CA,EXCLUDE,WAT,Big Creek 4,CA,,,,,,,
210,321,Big Creek,37.2096,-119.329,CA,EXCLUDE,WAT,Big Creek 8,CA,,,,,,,
211,322,Big Creek,37.20006,-119.307,CA,EXCLUDE,WAT,Big Creek 2A,CA,,,,,,,
212,323,Bishop Creek,37.27358,-118.573,CA,EXCLUDE,WAT,Bishop Creek 2,CA,,,,,,,
213,324,Bishop Creek,37.30196,-118.532,CA,EXCLUDE,WAT,Bishop Creek 3,CA,not in EIA,http://www.eia.gov/opendata/qb.cfm?category=902935,CA,exclude,,345,7273
214,325,Bishop Creek,37.32304,-118.502,CA,EXCLUDE,WAT,Bishop Creek 4,CA,not in EIA,,CO,exclude,,,4.74%
215,326,Bishop Creek,37.3344,-118.48,CA,EXCLUDE,WAT,Bishop Creek 5,CA,,,,,,,
216,327,Bishop Creek,37.3499,-118.463,CA,EXCLUDE,WAT,Bishop Creek 6,CA,,,,,,,
217,328,Borel,35.58807,-118.525,CA,EXCLUDE,WAT,Borel,CA,,,,,,,
218,329,Coolwater,34.8606,-116.854,CA,OGST,NG,Coolwater,CA,,,,,,,
219,330,El Segundo Power,33.9098,-118.424,CA,EXCLUDE,NG,El Segundo Power,CA,,,,,,,
220,331,Etiwanda Generating Station,34.09118,-117.527,CA,EXCLUDE,NG,Etiwanda Generating Station,CA,,,,,,,
221,332,Fontana,34.15516,-117.397,CA,EXCLUDE,WAT,Fontana,CA,,,,,,,
222,335,AES Huntington Beach LLC,33.6439,-117.979,CA,OGST,NG,AES Huntington Beach LLC,CA,,,,,,,
223,336,Kaweah,36.46133,-118.88,CA,EXCLUDE,WAT,Kaweah 2,CA,,,,,,,
224,337,Kaweah,36.46507,-118.862,CA,EXCLUDE,WAT,Kaweah 1,CA,,,,,,,
225,338,Kaweah,36.48606,-118.836,CA,EXCLUDE,WAT,Kaweah 3,CA,,,,,,,
226,339,Kern River,35.77619,-118.436,CA,EXCLUDE,WAT,Kern River 3,CA,,,,,,,
227,340,Kern River,35.4603,-118.78,CA,EXCLUDE,WAT,Kern River 1,CA,,,,,,,
228,341,Long Beach Generation LLC,33.7641,-118.225,CA,EXCLUDE,NG,Long Beach Generation LLC,CA,,,,,,,
229,342,Lundy,38.04273,-119.172,CA,EXCLUDE,WAT,Lundy,CA,,,,,,,
230,344,Mammoth Pool,37.2203,-119.338,CA,EXCLUDE,WAT,Mammoth Pool,CA,,,,,,,
231,345,Mandalay,34.2067,-119.251,CA,EXCLUDE,NG,Mandalay,CA,,,,,,,
232,350,Ormond Beach,34.1292,-119.169,CA,OGST,NG,Ormond Beach,CA,,,,,,,
233,353,Poole,37.94424,-119.216,CA,EXCLUDE,WAT,Poole,CA,,,,,,,
234,354,Portal,37.25705,-119.159,CA,EXCLUDE,WAT,Portal,CA,,,,,,,
235,356,AES Redondo Beach LLC,33.8504,-118.395,CA,OGST,NG,AES Redondo Beach LLC,CA,,,,,,,
236,357,Rush Creek,37.76695,-119.123,CA,EXCLUDE,WAT,Rush Creek,CA,,,,,,,
237,358,Mountainview Generating Station,34.0818,-117.242,CA,EXCLUDE,NG,Mountainview Generating Station,CA,,,,,,,
238,360,San Onofre Nuclear Generating Station,33.36879,-117.555,CA,EXCLUDE,NUC,San Onofre Nuclear Generating Station,CA,,,,,,,
239,361,Santa Ana,34.14522,-117.058,CA,EXCLUDE,WAT,Santa Ana 1,CA,,,,,,,
240,363,Santa Ana,34.10725,-117.099,CA,EXCLUDE,WAT,Santa Ana 3,CA,,,,,,,
241,365,Lower Tule River,36.13568,-118.789,CA,EXCLUDE,WAT,Tule River,CA,,,,,,,
242,371,Columbia Generating Station,46.4711,-119.334,WA,EXCLUDE,NUC,Columbia Generating Station,WA,,,,,,,
243,375,Magnolia,34.17806,-118.316,CA,EXCLUDE,NG,Magnolia,CA,,,,,,,
244,376,Pardee,38.2569,-120.851,CA,EXCLUDE,WAT,Pardee,CA,,,,,,,
245,377,Grayson,34.1556,-118.278,CA,NGCC,NG,Grayson,CA,,,,,,,
246,378,Prairie River,47.28721,-93.4983,MN,EXCLUDE,WAT,Prairie River,MN,,,,,,,
247,380,Dion R Holm,37.89665,-119.968,CA,EXCLUDE,WAT,Dion R Holm,CA,,,,,,,
248,381,Moccasin,37.80939,-120.299,CA,EXCLUDE,WAT,Moccasin,CA,,,,,,,
249,382,R C Kirkwood,37.87767,-119.953,CA,EXCLUDE,WAT,R C Kirkwood,CA,,,,,,,
250,383,Brawley,32.96889,-115.534,CA,EXCLUDE,DFO,Brawley,CA,,,,,,,
251,384,Joliet,41.49464,-88.1238,IL,COALST,SUB,Joliet 29,IL,,,,,,,
252,385,Drop,32.70544,-115.031,CA,EXCLUDE,WAT,Drop 2,CA,,,,,,,
253,386,Drop,32.70543,-115.126,CA,EXCLUDE,WAT,Drop 3,CA,,,,,,,
254,387,Drop,32.70534,-115.219,CA,EXCLUDE,WAT,Drop 4,CA,,,,,,,
255,388,Pilot Knob,32.73664,-114.714,CA,EXCLUDE,WAT,Pilot Knob,CA,,,,,,,
256,389,El Centro,32.80222,-115.54,CA,NGCC,NG,El Centro,CA,,,,,,,
257,390,Solomon Gulch,61.0828,-146.303,AK,EXCLUDE,WAT,Solomon Gulch,AK,,,,,,,
258,391,Big Pine Creek,37.1428,-118.324,CA,EXCLUDE,WAT,Big Pine,CA,,,,,,,
259,392,Castaic,34.58724,-118.657,CA,EXCLUDE,WAT,Castaic,CA,,,,,,,
260,393,Control Gorge,37.43792,-118.557,CA,EXCLUDE,WAT,Control Gorge,CA,,,,,,,
261,394,Cottonwood,36.44342,-118.044,CA,EXCLUDE,WAT,Cottonwood,CA,,,,,,,
262,396,Foothill,34.31825,-118.494,CA,EXCLUDE,WAT,Foothill,CA,,,,,,,
263,397,Franklin (CA),34.10393,-118.413,CA,EXCLUDE,WAT,Franklin,CA,,,,,,,
264,398,Haiwee,36.10972,-117.957,CA,EXCLUDE,WAT,Haiwee,CA,,,,,,,
265,399,Harbor,33.7856,-118.264,CA,NGCC,NG,Harbor,CA,,,,,,,
266,400,Haynes,33.76474,-118.099,CA,OGST,NG,Haynes,CA,,,,,,,
267,401,Middle Gorge,37.51,-118.569,CA,EXCLUDE,WAT,Middle Gorge,CA,,,,,,,
268,402,Pleasant Valley Hydro,37.41416,-118.524,CA,EXCLUDE,WAT,Pleasant Valley,CA,,,,,,,
269,403,San Fernando,34.26053,-118.386,CA,EXCLUDE,WAT,San Fernando,CA,,,,,,,
270,404,Scattergood,33.91815,-118.428,CA,OGST,NG,Scattergood,CA,,,,,,,
271,406,Tok,63.3367,-142.986,AK,EXCLUDE,DFO,Tok,AK,,,,,,,
272,407,Upper Gorge,37.54604,-118.59,CA,EXCLUDE,WAT,Upper Gorge,CA,,,,,,,
273,408,Valley (CA),34.24499,-118.391,CA,EXCLUDE,NG,Valley,CA,,,,,,,
274,409,Exchequer,37.58435,-120.269,CA,EXCLUDE,WAT,Exchequer,CA,,,,,,,
275,410,McSwain,37.52207,-120.31,CA,EXCLUDE,WAT,McSwain,CA,,,,,,,
276,412,Chicago Park,39.1779,-120.891,CA,EXCLUDE,WAT,Chicago Park,CA,,,,,,,
277,413,Dutch Flat,39.2184,-120.835,CA,EXCLUDE,WAT,Dutch Flat 2,CA,,,,,,,
278,414,Beardsley,38.20257,-120.077,CA,EXCLUDE,WAT,Beardsley,CA,,,,,,,
279,415,Donnells,38.24666,-120.034,CA,EXCLUDE,WAT,Donnells,CA,,,,,,,
280,416,Tulloch,37.87611,-120.605,CA,EXCLUDE,WAT,Tulloch,CA,,,,,,,
281,417,Forbestown,39.55101,-121.279,CA,EXCLUDE,WAT,Forbestown,CA,,,,,,,
282,418,Kelly Ridge,39.53178,-121.491,CA,EXCLUDE,WAT,Kelly Ridge,CA,,,,,,,
283,419,Woodleaf,39.55381,-121.204,CA,EXCLUDE,WAT,Woodleaf,CA,,,,,,,
284,420,Broadway (CA),34.1254,-118.148,CA,EXCLUDE,NG,Broadway,CA,,,,,,,
285,421,Craig (AK),55.4764,-133.148,AK,EXCLUDE,DFO,Craig,AK,,,,,,,
286,422,Glenarm,34.126,-118.149,CA,EXCLUDE,NG,Glenarm,CA,,,,,,,
287,423,Hydaburg,55.2081,-132.827,AK,EXCLUDE,DFO,Hydaburg,AK,,,,,,,
288,424,French Meadows,39.07797,-120.406,CA,EXCLUDE,WAT,French Meadows,CA,,,,,,,
289,425,Middle Fork,39.0248,-120.596,CA,EXCLUDE,WAT,Middle Fork,CA,,,,,,,
290,426,Oxbow (CA),39.00337,-120.747,CA,EXCLUDE,WAT,Oxbow,CA,,,,,,,
291,427,Ralston,39.001,-120.725,CA,EXCLUDE,WAT,Ralston,CA,,,,,,,
292,428,Parker,37.47784,-120.444,CA,EXCLUDE,WAT,Parker,CA,,,,,,,
293,430,Camino,38.82881,-120.537,CA,EXCLUDE,WAT,Camino,CA,,,,,,,
294,431,Jaybird,38.83405,-120.532,CA,EXCLUDE,WAT,Jaybird,CA,,,,,,,
295,432,Loon Lake,38.9827,-120.325,CA,EXCLUDE,WAT,Loon Lake,CA,,,,,,,
296,433,Robbs Peak,38.89651,-120.378,CA,EXCLUDE,WAT,Robbs Peak,CA,,,,,,,
297,435,White Rock/Slab Creek,38.76534,-120.787,CA,EXCLUDE,WAT,White Rock/Slab Creek,CA,,,,,,,
298,436,Devil Canyon,34.2056,-117.334,CA,EXCLUDE,WAT,Devil Canyon,CA,,,,,,,
299,437,Edward C Hyatt,39.54299,-121.492,CA,EXCLUDE,WAT,Edward C Hyatt,CA,,,,,,,
300,438,Thermalito,39.51489,-121.63,CA,EXCLUDE,WAT,Thermalito,CA,,,,,,,
301,439,Don Pedro,37.69599,-120.42,CA,EXCLUDE,WAT,Don Pedro,CA,,,,,,,
302,440,La Grange,37.6697,-120.444,CA,EXCLUDE,WAT,La Grange,CA,,,,,,,
303,441,Folsom,38.70675,-121.158,CA,EXCLUDE,WAT,Folsom,CA,,,,,,,
304,442,Judge F Carr,40.64693,-122.627,CA,EXCLUDE,WAT,Judge F Carr,CA,,,,,,,
305,443,Keswick,40.61186,-122.446,CA,EXCLUDE,WAT,Keswick,CA,,,,,,,
306,444,Nimbus,38.63735,-121.22,CA,EXCLUDE,WAT,Nimbus,CA,,,,,,,
307,445,Shasta,40.71746,-122.422,CA,EXCLUDE,WAT,Shasta,CA,,,,,,,
308,446,ONeill,37.09867,-121.048,CA,EXCLUDE,WAT,ONeill,CA,,,,,,,
309,447,Parker Dam,34.29533,-114.14,CA,EXCLUDE,WAT,Parker Dam,CA,,,,,,,
310,448,W R Gianelli,37.0692,-121.077,CA,EXCLUDE,WAT,W R Gianelli,CA,,,,,,,
311,450,Spring Creek,40.62812,-122.468,CA,EXCLUDE,WAT,Spring Creek,CA,,,,,,,
312,451,Trinity,40.7973,-122.763,CA,EXCLUDE,WAT,Trinity,CA,,,,,,,
313,454,Colgate,39.33083,-121.192,CA,EXCLUDE,WAT,Colgate,CA,,,,,,,
314,455,Narrows,39.239,-121.27,CA,EXCLUDE,WAT,Narrows 2,CA,,,,,,,
315,457,Bear Valley,33.16611,-117.017,CA,EXCLUDE,WAT,Bear Valley,CA,,,,,,,
4830,460,Pueblo,38.2667,-104.614,CO,EXCLUDE,NG,Pueblo,CO,,,,,,,
6456,462,W N Clark,38.4344,-105.25,CO,EXCLUDE,BIT,W N Clark,CO,,,,,,,
318,464,Alamosa,37.4594,-105.895,CO,EXCLUDE,NG,Alamosa,CO,,,,,,,
321,465,Arapahoe,39.67,-105.003,CO,EXCLUDE,SUB,Arapahoe,CO,,,,,,,
327,466,Boulder Canyon Hydro,40.00473,-105.332,CO,EXCLUDE,WAT,Boulder Canyon Hydro,CO,,,,,,,
343,467,Cabin Creek,39.6551,-105.709,CO,EXCLUDE,WAT,Cabin Creek,CO,,,,,,,
344,468,Cameo,39.12778,-108.326,CO,EXCLUDE,BIT,Cameo,CO,,,,,,,
351,469,Cherokee,39.80728,-104.965,CO,COALST,BIT,Cherokee,CO,,,,,,,
358,470,Comanche (CO),38.2081,-104.575,CO,COALST,SUB,Comanche,CO,,,,,,,
379,471,Fruita,39.1364,-108.735,CO,EXCLUDE,NG,Fruita,CO,,,,,,,
2122,472,Georgetown Hydro,39.6919,-105.698,CO,EXCLUDE,WAT,Georgetown,CO,,,,,,,
2179,473,Grand Valley Project Power Plant,39.10167,-108.346,CO,EXCLUDE,WAT,Grand Valley Project Power Plant,CO,,,,,,,
5403,474,Salida,38.53419,-106.182,CO,EXCLUDE,WAT,Salida,CO,,,,,,,
5406,476,Shoshone (CO),39.57013,-107.227,CO,EXCLUDE,WAT,Shoshone,CO,,,,,,,
6410,477,Valmont,40.0195,-105.202,CO,COALST,BIT,Valmont,CO,,,,,,,
6871,478,Zuni,39.73735,-105.017,CO,EXCLUDE,NG,Zuni,CO,,,,,,,
334,479,Temescal,33.8343,-117.497,CA,EXCLUDE,WAT,Temescal,CA,,,,,,,
335,480,Corona,33.85895,-117.611,CA,EXCLUDE,WAT,Corona,CA,,,,,,,
336,481,Perris,33.8361,-117.183,CA,EXCLUDE,WAT,Perris,CA,,,,,,,
337,482,Rio Hondo,34.00472,-118.099,CA,EXCLUDE,WAT,Rio Hondo,CA,,,,,,,
338,483,Coyote Creek,33.92493,-117.955,CA,EXCLUDE,WAT,Coyote Creek,CA,,,,,,,
339,484,Red Mountain,33.3944,-117.189,CA,EXCLUDE,WAT,Red Mountain,CA,,,,,,,
340,487,Valley View,33.9001,-117.829,CA,EXCLUDE,WAT,Valley View,CA,,,,,,,
341,489,Upper Dawson,37.6508,-120.471,CA,EXCLUDE,WAT,Upper Dawson,CA,,,,,,,
333,490,490,490,490,490,EXCLUDE,DFO,Burlington City of,CO,,,,,,,
350,491,491,491,491,491,EXCLUDE,DFO,Center,CO,,,,,,,
3157,492,Martin Drake,38.82444,-104.833,CO,COALST,SUB,Martin Drake,CO,,,,,,,
380,493,George Birdsall,38.88139,-104.817,CO,EXCLUDE,NG,George Birdsall,CO,,,,,,,
3156,494,Manitou Springs,38.85556,-104.933,CO,EXCLUDE,WAT,Manitou Springs,CO,,,,,,,
5400,495,Ruxton Park,38.84135,-104.974,CO,EXCLUDE,WAT,Ruxton Park,CO,,,,,,,
364,496,Delta (CO),38.7314,-108.071,CO,EXCLUDE,NG,Delta,CO,,,,,,,
2246,502,Holly,38.055,-102.2,CO,EXCLUDE,NG,Holly,CO,,,,,,,
2435,504,Julesburg,40.9681,-102.249,CO,EXCLUDE,DFO,Julesburg,CO,,,,,,,
360,505,Boysen,43.41787,-108.178,WY,EXCLUDE,WAT,Boysen,WY,,,,,,,
2561,506,La Junta,37.9844,-103.544,CO,EXCLUDE,DFO,La Junta,CO,,,,,,,
2948,507,Las Animas,38.0597,-103.221,CO,EXCLUDE,DFO,Las Animas,CO,,,,,,,
2921,508,Lamar Plant,38.03333,-102.538,CO,EXCLUDE,NG,Lamar Plant,CO,,,,,,,
369,510,Sonoma California Geothermal,38.7903,-122.756,CA,EXCLUDE,GEO,Sonoma California Geothermal,CA,not in EIA,,,exclude,,,
5982,511,Trinidad (CO),37.17898,-104.487,CO,EXCLUDE,BIT,Trinidad,CO,not in EIA,,,exclude,,,
325,512,Blue Mesa,38.45319,-107.337,CO,EXCLUDE,WAT,Blue Mesa,CO,,,,,,,
371,513,Estes,40.37677,-105.51,CO,EXCLUDE,WAT,Estes,CO,,,,,,,
3329,514,Morrow Point,38.45175,-107.539,CO,EXCLUDE,WAT,Morrow Point,CO,,,,,,,
324,515,Big Thompson,40.42103,-105.224,CO,EXCLUDE,WAT,Big Thompson,CO,,,,,,,
2181,516,Green Mountain,39.87881,-106.333,CO,EXCLUDE,WAT,Green Mountain,CO,,,,,,,
3287,517,Marys Lake,40.34408,-105.534,CO,EXCLUDE,WAT,Marys Lake,CO,,,,,,,
372,518,Flatiron,40.365,-105.236,CO,EXCLUDE,WAT,Flatiron,CO,,,,,,,
4742,519,Pole Hill,40.36506,-105.325,CO,EXCLUDE,WAT,Pole Hill,CO,,,,,,,
3036,520,Lower Molina,39.19366,-108.044,CO,EXCLUDE,WAT,Lower Molina,CO,,,,,,,
6168,521,Upper Molina,39.14381,-108.005,CO,EXCLUDE,WAT,Upper Molina,CO,,,,,,,
6461,524,Yuma,40.14,-102.711,CO,EXCLUDE,DFO,Yuma,CO,,,,,,,
2244,525,Hayden,40.4856,-107.185,CO,COALST,BIT,Hayden,CO,,,,,,,
3644,527,Nucla,38.2383,-108.507,CO,EXCLUDE,BIT,Nucla,CO,,,,,,,
381,529,Rancho Seco Solar,38.34002,-121.114,CA,EXCLUDE,SUN,Rancho Seco Solar,CA,,,,,,,
382,531,Camp Far West,39.0488,-121.317,CA,EXCLUDE,WAT,Camp Far West,CA,,,,,,,
383,533,McWilliams,31.40026,-86.4764,AL,NGCC,NG,McWilliams,AL,,,,,,,
384,534,Jones Fork,38.85028,-120.382,CA,EXCLUDE,WAT,Jones Fork,CA,,,,,,,
385,535,McClellan (CA),38.65273,-121.393,CA,EXCLUDE,NG,McClellan,CA,,,,,,,
386,537,Camanche,38.2268,-121.025,CA,EXCLUDE,WAT,Camanche,CA,,,,,,,
387,539,Rocky River (CT),41.5826,-73.4349,CT,EXCLUDE,WAT,Rocky River,CT,,,,,,,
388,540,Branford,41.2925,-72.7942,CT,EXCLUDE,KER,Branford,CT,,,,,,,
389,541,Bulls Bridge,41.65905,-73.492,CT,EXCLUDE,WAT,Bulls Bridge,CT,,,,,,,
390,542,Cos Cob,41.0289,-73.5989,CT,EXCLUDE,KER,Cos Cob,CT,,,,,,,
391,544,Devon Station,41.2098,-73.109,CT,EXCLUDE,KER,Devon Station,CT,,,,,,,
392,546,Montville Station,41.4281,-72.1019,CT,EXCLUDE,DFO,Montville Station,CT,,,,,,,
393,547,Northfield Mountain,42.61068,-72.4716,MA,EXCLUDE,WAT,Northfield Mountain,MA,,,,,,,
394,548,NRG Norwalk Harbor,41.07244,-73.411,CT,OGST,RFO,NRG Norwalk Harbor,CT,,,,,,,
395,550,Kettle Falls Generating Station,48.62034,-118.111,WA,EXCLUDE,WDS,Kettle Falls Generating Station,WA,,,,,,,
396,551,Scotland Dam,41.6651,-72.1221,CT,EXCLUDE,WAT,Scotland Dam,CT,,,,,,,
397,552,Shepaug,41.44842,-73.2953,CT,EXCLUDE,WAT,Shepaug,CT,,,,,,,
398,553,Stevenson,41.3833,-73.1714,CT,EXCLUDE,WAT,Stevenson,CT,,,,,,,
399,554,Taftville,41.5725,-72.0458,CT,EXCLUDE,WAT,Taftville,CT,,,,,,,
400,557,Tunnel,41.55543,-72.0418,CT,EXCLUDE,WAT,Tunnel,CT,,,,,,,
401,559,Rainbow (CT),41.91531,-72.6936,CT,EXCLUDE,WAT,Rainbow,CT,,,,,,,
402,560,Falls Village,41.95727,-73.3693,CT,EXCLUDE,WAT,Falls Village,CT,,,,,,,
403,561,Franklin Drive,41.79894,-73.1163,CT,EXCLUDE,KER,Franklin Drive,CT,,,,,,,
404,562,Middletown,41.55494,-72.5791,CT,EXCLUDE,RFO,Middletown,CT,,,,,,,
405,563,South Meadow,41.7495,-72.6524,CT,EXCLUDE,KER,South Meadow,CT,,,,,,,
406,564,Stanton Energy Center,28.4822,-81.1678,FL,COALST,BIT,Stanton Energy Center,FL,,,,,,,
407,565,Torrington Terminal,41.77611,-73.1209,CT,EXCLUDE,KER,Torrington Terminal,CT,,,,,,,
408,566,Millstone,41.3107,-72.1677,CT,EXCLUDE,NUC,Millstone,CT,,,,,,,
409,568,Bridgeport Station,41.1706,-73.1844,CT,COALST,SUB,Bridgeport Station,CT,,,,,,,
410,579,Central Hudson High Falls,41.82881,-74.1319,NY,EXCLUDE,WAT,Central Hudson High Falls,NY,,,,,,,
411,581,North Main Street,41.52679,-72.0649,CT,EXCLUDE,DFO,North Main Street,CT,,,,,,,
412,583,Tenth Street,41.53896,-72.0509,CT,EXCLUDE,WAT,Tenth Street,CT,,,,,,,
413,584,Navajo Dam,36.8061,-107.613,NM,EXCLUDE,WAT,Navajo Dam,NM,,,,,,,
414,585,Drop,32.71161,-114.943,CA,EXCLUDE,WAT,Drop 1,CA,,,,,,,
415,586,East Highline,32.69945,-115.282,CA,EXCLUDE,WAT,East Highline,CA,,,,,,,
416,589,J C McNeil,44.4917,-73.2081,VT,EXCLUDE,WDS,J C McNeil,VT,,,,,,,
417,591,Christiana,39.7302,-75.5371,DE,EXCLUDE,DFO,Christiana,DE,,,,,,,
418,592,Delaware City,39.60041,-75.6268,DE,EXCLUDE,DFO,Delaware City 10,DE,,,,,,,
419,593,Edge Moor,39.73886,-75.5038,DE,EXCLUDE,DFO,Edge Moor,DE,,,,,,,
420,594,Indian River Generating Station,38.5857,-75.2341,DE,COALST,BIT,Indian River Generating Station,DE,,,,,,,
421,597,West Station (DE),39.7283,-75.6289,DE,EXCLUDE,DFO,West Station,DE,,,,,,,
422,599,McKee Run,39.17622,-75.5466,DE,EXCLUDE,NG,McKee Run,DE,,,,,,,
423,601,Seaford,38.6489,-75.6164,DE,EXCLUDE,DFO,Seaford,DE,,,,,,,
424,602,Brandon Shores,39.18,-76.5389,MD,COALST,BIT,Brandon Shores,MD,,,,,,,
425,603,Benning,38.8994,-76.9592,DC,EXCLUDE,DFO,Benning,DC,,,,,,,
426,604,Buzzard Point,38.8678,-77.0117,DC,EXCLUDE,DFO,Buzzard Point,DC,,,,,,,
427,607,Fredonia,48.4558,-122.436,WA,EXCLUDE,NG,Fredonia,WA,,,,,,,
428,609,Cape Canaveral,28.4698,-80.7644,FL,EXCLUDE,RFO,Cape Canaveral,FL,,,,,,,
429,610,Cutler,25.6321,-80.2989,FL,OGST,NG,Cutler,FL,,,,,,,
430,612,Fort Myers,26.6967,-81.7831,FL,EXCLUDE,DFO,Fort Myers,FL,,,,,,,
431,613,Lauderdale,26.0686,-80.1984,FL,EXCLUDE,NG,Lauderdale,FL,,,,,,,
432,617,Port Everglades,26.0856,-80.1253,FL,EXCLUDE,NG,Port Everglades,FL,,,,,,,
433,619,Riviera,26.7653,-80.0525,FL,EXCLUDE,RFO,Riviera,FL,,,,,,,
434,620,Sanford,28.8419,-81.3256,FL,OGST,RFO,Sanford,FL,,,,,,,
435,621,Turkey Point,25.4356,-80.3308,FL,EXCLUDE,NUC,Turkey Point,FL,,,,,,,
436,622,South Fork Tolt,47.69917,-121.783,WA,EXCLUDE,WAT,South Fork Tolt,WA,,,,,,,
437,624,Avon Park,27.57944,-81.4928,FL,EXCLUDE,NG,Avon Park,FL,,,,,,,
438,625,Upper Mechanicville,42.9126,-73.6805,NY,EXCLUDE,WAT,Upper Mechanicville,NY,,,,,,,
439,626,Oak Flat,40.07531,-121.161,CA,EXCLUDE,WAT,Oak Flat,CA,,,,,,,
440,627,Bayboro,27.75806,-82.6353,FL,EXCLUDE,DFO,Bayboro,FL,,,,,,,
441,628,Crystal River,28.9656,-82.6977,FL,COALST,BIT,Crystal River,FL,,,,,,,
442,629,G E Turner,28.86958,-81.274,FL,EXCLUDE,DFO,G E Turner,FL,,,,,,,
443,630,Higgins,28.00326,-82.6615,FL,EXCLUDE,NG,Higgins,FL,,,,,,,
444,632,Newcastle,38.83518,-121.093,CA,EXCLUDE,WAT,Newcastle,CA,,,,,,,
445,634,P L Bartow,27.85954,-82.6018,FL,NGCC,NG,P L Bartow,FL,,,,,,,
446,637,Rio Pinar,28.54152,-81.2541,FL,EXCLUDE,DFO,Rio Pinar,FL,,,,,,,
447,638,Suwannee River,30.37639,-83.1806,FL,OGST,NG,Suwannee River,FL,,,,,,,
448,641,Crist,30.5661,-87.2244,FL,EXCLUDE,NG,Crist,FL,,,,,,,
449,642,Scholz,30.6692,-84.8869,FL,COALST,BIT,Scholz,FL,,,,,,,
450,643,Lansing Smith,30.2686,-85.7003,FL,COALST,BIT,Lansing Smith,FL,,,,,,,
451,645,Big Bend,27.7944,-82.4036,FL,EXCLUDE,DFO,Big Bend,FL,,,,,,,
452,646,F J Gannon,27.90722,-82.4231,FL,EXCLUDE,BIT,F J Gannon,FL,,,,,,,
453,647,Hookers Point,27.9375,-82.4444,FL,EXCLUDE,RFO,Hookers Point,FL,,,,,,,
454,649,Vogtle,33.1427,-81.7625,GA,EXCLUDE,NUC,Vogtle,GA,,,,,,,
455,650,Kensico,41.0851,-73.7748,NY,EXCLUDE,WAT,Kensico,NY,,,,,,,
456,658,Henry D King,27.44861,-80.3386,FL,EXCLUDE,NG,Henry D King,FL,,,,,,,
457,663,Deerhaven Generating Station,29.7592,-82.3878,FL,OGST,NG,Deerhaven Generating Station,FL,,,,,,,
458,664,John R Kelly,29.6461,-82.3208,FL,EXCLUDE,NG,John R Kelly,FL,,,,,,,
459,665,G W Ivey,25.4756,-80.47,FL,EXCLUDE,NG,G W Ivey,FL,,,,,,,
460,666,J D Kennedy,30.36482,-81.626,FL,EXCLUDE,DFO,J D Kennedy,FL,,,,,,,
461,667,Northside Generating Station,30.4172,-81.5525,FL,COALST,PC,Northside Generating Station,FL,,,,,,,
462,668,Southside Generating Station,30.31639,-81.6489,FL,EXCLUDE,RFO,Southside Generating Station,FL,,,,,,,
463,672,Hansel,28.28944,-81.4079,FL,EXCLUDE,NG,Hansel,FL,,,,,,,
464,673,Tom G Smith,26.61277,-80.0677,FL,EXCLUDE,DFO,Tom G Smith,FL,,,,,,,
465,674,Pilot Butte,43.21902,-108.788,WY,EXCLUDE,WAT,Pilot Butte,WY,,,,,,,
466,675,Larsen Memorial,28.0797,-81.9228,FL,EXCLUDE,NG,Larsen Memorial,FL,,,,,,,
467,676,C D McIntosh Jr,28.0801,-81.9229,FL,COALST,BIT,C D McIntosh Jr,FL,,,,,,,
468,678,W K Sanders,44.62528,-72.5309,VT,EXCLUDE,WAT,W K Sanders,VT,,,,,,,
469,679,Smith Street,29.0219,-80.9644,FL,EXCLUDE,DFO,Smith Street,FL,,,,,,,
470,681,W E Swoope,29.0219,-80.9644,FL,EXCLUDE,DFO,W E Swoope,FL,,,,,,,
471,682,Kerckhoff,37.07185,-119.558,CA,EXCLUDE,WAT,Kerckhoff 2,CA,,,,,,,
472,683,Indian River Plant,28.49323,-80.7801,FL,EXCLUDE,NG,Indian River Plant,FL,,,,,,,
473,685,St Cloud,28.2447,-81.2881,FL,EXCLUDE,NG,St Cloud,FL,,,,,,,
474,688,Arvah B Hopkins,30.4522,-84.4,FL,OGST,NG,Arvah B Hopkins,FL,,,,,,,
475,689,S O Purdom,30.1623,-84.2007,FL,OGST,NG,S O Purdom,FL,,,,,,,
476,690,J Woodruff,30.70857,-84.8639,FL,EXCLUDE,WAT,J Woodruff,FL,,,,,,,
477,692,Medicine Bow,41.83528,-106.243,WY,EXCLUDE,WND,Medicine Bow,WY,,,,,,,
478,693,Vero Beach Municipal Power Plant,27.63338,-80.3776,FL,EXCLUDE,NG,Vero Beach Municipal Power Plant,FL,,,,,,,
479,696,Marathon Generating Plant,24.71083,-81.0927,FL,EXCLUDE,DFO,Marathon Generating Plant,FL,,,,,,,
480,698,Trenton North,40.0786,-93.635,MO,EXCLUDE,DFO,Trenton Peaking,MO,,,,,,,
481,699,Arkwright,32.92694,-83.6994,GA,EXCLUDE,BIT,Arkwright,GA,,,,,,,
482,700,Atkinson,33.8175,-84.4803,GA,EXCLUDE,NG,Atkinson,GA,,,,,,,
483,701,Barnett Shoals,33.83948,-83.3097,GA,EXCLUDE,WAT,Barnett Shoals,GA,,,,,,,
484,702,Bartletts Ferry,32.66198,-85.0916,AL,EXCLUDE,WAT,Bartletts Ferry,AL,,,,,,,
485,703,Bowen,34.1256,-84.9222,GA,COALST,BIT,Bowen,GA,,,,,,,
486,704,Burton Dam,34.7939,-83.5406,GA,EXCLUDE,WAT,Burton,GA,,,,,,,
487,706,Flint River,31.6028,-84.1376,GA,EXCLUDE,WAT,Flint River,GA,,,,,,,
488,707,Goat Rock,32.60965,-85.0805,AL,EXCLUDE,WAT,Goat Rock,AL,,,,,,,
489,708,Hammond,34.2528,-85.3456,GA,COALST,BIT,Hammond,GA,,,,,,,
490,709,Harllee Branch,33.195,-83.2983,GA,COALST,BIT,Harllee Branch,GA,,,,,,,
491,710,Jack McDonough,33.8239,-84.4758,GA,COALST,BIT,Jack McDonough,GA,,,,,,,
492,711,Langdale,32.81384,-85.1678,AL,EXCLUDE,WAT,Langdale,AL,,,,,,,
493,712,Lloyd Shoals,33.32077,-83.8419,GA,EXCLUDE,WAT,Lloyd Shoals,GA,,,,,,,
494,714,Toadtown,39.89349,-121.593,CA,EXCLUDE,WAT,Toadtown,CA,,,,,,,
495,715,McManus,31.21365,-81.5462,GA,OGST,RFO,McManus,GA,,,,,,,
496,717,Morgan Falls,33.9684,-84.3827,GA,EXCLUDE,WAT,Morgan Falls,GA,,,,,,,
497,718,Nacoochee,34.75527,-83.5011,GA,EXCLUDE,WAT,Nacoochee,GA,,,,,,,
498,719,North Highlands,32.49879,-84.9956,GA,EXCLUDE,WAT,North Highlands,GA,,,,,,,
499,720,Oliver Dam,32.5163,-84.9969,GA,EXCLUDE,WAT,Oliver Dam,GA,,,,,,,
500,722,Sinclair Dam,33.1403,-83.2028,GA,EXCLUDE,WAT,Sinclair Dam,GA,,,,,,,
501,723,Tallulah Falls,34.73133,-83.3755,GA,EXCLUDE,WAT,Tallulah Falls,GA,,,,,,,
502,724,Terrora,34.7504,-83.4063,GA,EXCLUDE,WAT,Terrora,GA,,,,,,,
503,725,Tugalo,34.7133,-83.3519,GA,EXCLUDE,WAT,Tugalo,GA,,,,,,,
504,727,Mitchell (GA),31.44473,-84.1347,GA,EXCLUDE,BIT,Mitchell,GA,,,,,,,
505,728,Yates,33.4622,-84.8986,GA,COALST,BIT,Yates,GA,,,,,,,
506,729,Yonah,34.68148,-83.3426,GA,EXCLUDE,WAT,Yonah,GA,,,,,,,
507,732,Boulevard,32.0411,-81.145,GA,EXCLUDE,NG,Boulevard,GA,,,,,,,
508,733,Kraft,32.1486,-81.1458,GA,COALST,BIT,Kraft,GA,,,,,,,
509,734,Riverside (GA),32.08361,-81.0956,GA,EXCLUDE,NG,Riverside,GA,,,,,,,
510,736,Stevens Creek,33.56264,-82.0512,GA,EXCLUDE,WAT,Stevens Creek,GA,,,,,,,
511,745,Etiwanda,34.10345,-117.526,CA,EXCLUDE,WAT,Etiwanda,CA,,,,,,,
512,747,747,747,747,747,EXCLUDE,NG,Dinner Lake,FL,,,,,,,
513,748,Phillips,27.4439,-81.3633,FL,EXCLUDE,DFO,Phillips,FL,,,,,,,
514,751,Moccasin Low Head Hydro Project,37.81645,-120.312,CA,EXCLUDE,WAT,Moccasin Low Head Hydro Project,CA,,,,,,,
515,752,Lake Blackshear Project,31.8477,-83.942,GA,EXCLUDE,WAT,Lake Blackshear Project,GA,,,,,,,
516,753,Crisp Plant,31.84471,-83.9407,GA,EXCLUDE,BIT,Crisp Plant,GA,,,,,,,
517,754,Hartwell Lake,34.3564,-82.8219,GA,EXCLUDE,WAT,Hartwell Lake,GA,,,,,,,
518,757,Blue Ridge,34.88389,-84.2822,GA,EXCLUDE,WAT,Blue Ridge,GA,,,,,,,
519,758,Nottely,34.95915,-84.0877,GA,EXCLUDE,WAT,Nottely,GA,,,,,,,
520,759,Buford,34.16228,-84.0774,GA,EXCLUDE,WAT,Buford,GA,,,,,,,
521,760,Allatoona,34.1637,-84.7282,GA,EXCLUDE,WAT,Allatoona,GA,,,,,,,
522,761,Walter F George,34.61423,-84.6748,GA,EXCLUDE,WAT,Walter F George,GA,,,,,,,
523,762,Ponca,36.71979,-97.0858,OK,OGST,NG,Ponca,OK,,,,,,,
524,764,Honolulu,21.3068,-157.882,HI,EXCLUDE,RFO,Honolulu,HI,,,,,,,
525,765,Kahe,21.3564,-158.129,HI,EXCLUDE,RFO,Kahe,HI,not in EIA,,FL,exclude,,,
526,766,Waiau,21.389,-157.962,HI,EXCLUDE,DFO,Waiau,HI,,,,,,,
527,768,Waimea,19.6306,-155.982,HI,EXCLUDE,DFO,Waimea,HI,,,,,,,
528,769,Kanoelehua,19.7052,-155.063,HI,EXCLUDE,DFO,Kanoelehua,HI,,,,,,,
529,771,Puueo,19.7264,-155.091,HI,EXCLUDE,WAT,Puueo,HI,,,,,,,
530,772,W H Hill,19.7041,-155.061,HI,EXCLUDE,RFO,W H Hill,HI,,,,,,,
531,773,773,773,773,773,EXCLUDE,WAT,Sullivan CR,WA,,,,,,,
532,774,Waiau Hydro,19.7203,-155.119,HI,EXCLUDE,WAT,Waiau,HI,,,,,,,
533,776,Sly Creek,39.58041,-121.119,CA,EXCLUDE,WAT,Sly Creek,CA,,,,,,,
534,783,783,783,783,783,EXCLUDE,WAT,Basin Mills,ME,,,,,,,
535,784,784,784,784,784,EXCLUDE,WAT,Veazie C,ME,,,,,,,
536,785,Kingsley,41.2114,-101.668,NE,EXCLUDE,WAT,Kingsley,NE,,,,,,,
537,788,East Barnet,44.32634,-72.0359,VT,EXCLUDE,WAT,East Barnet,VT,,,,,,,
538,789,Orca,60.555,-145.753,AK,EXCLUDE,DFO,Orca,AK,,,,,,,
539,790,Gem State,43.42022,-112.102,ID,EXCLUDE,WAT,Gem State,ID,,,,,,,
540,791,Canyon,29.87056,-98.1947,TX,EXCLUDE,WAT,Canyon,TX,,,,,,,
541,792,Palaau Power,21.106,-157.065,HI,EXCLUDE,DFO,Palaau Power,HI,,,,,,,
542,794,Lewisville,33.06847,-96.9638,TX,EXCLUDE,WAT,Lewisville,TX,,,,,,,
543,805,Charles E Monty,44.09946,-70.2209,ME,EXCLUDE,WAT,Charles E Monty,ME,,,,,,,
544,808,Jarvis (Hinckley),43.3121,-75.109,NY,EXCLUDE,WAT,Jarvis (Hinckley),NY,not in EIA,Sullivan CR,WA,exclude,,,
545,809,American Falls,42.7778,-112.876,ID,EXCLUDE,WAT,American Falls,ID,,,,,,,
546,810,Bliss,42.91379,-115.071,ID,EXCLUDE,WAT,Bliss,ID,,,,,,,
547,811,Brownlee,44.8367,-116.898,ID,EXCLUDE,WAT,Brownlee,ID,not in EIA,,,exclude,,,
548,812,C J Strike,42.94487,-115.978,ID,EXCLUDE,WAT,C J Strike,ID,not in EIA,,,exclude,,,
549,813,Cascade Dam,44.5256,-116.048,ID,EXCLUDE,WAT,Cascade,ID,,,,,,,
550,814,Clear Lake,42.66701,-114.78,ID,EXCLUDE,WAT,Clear Lake,ID,,,,,,,
551,815,Lower Malad,42.86578,-114.906,ID,EXCLUDE,WAT,Lower Malad,ID,,,,,,,
552,816,Lower Salmon,42.84161,-114.904,ID,EXCLUDE,WAT,Lower Salmon,ID,,,,,,,
553,817,Salmon Diesel,45.18337,-113.885,ID,EXCLUDE,DFO,Salmon Diesel,ID,,,,,,,
554,818,Shoshone Falls,42.5975,-114.403,ID,EXCLUDE,WAT,Shoshone Falls,ID,,,,,,,
555,819,Swan Falls,43.2435,-116.379,ID,EXCLUDE,WAT,Swan Falls,ID,,,,,,,
556,820,Thousand Springs,42.74054,-114.837,ID,EXCLUDE,WAT,Thousand Springs,ID,,,,,,,
557,821,Twin Falls (ID),42.5892,-114.355,ID,EXCLUDE,WAT,Twin Falls,ID,,,,,,,
558,822,Upper Salmon A,42.76742,-114.925,ID,EXCLUDE,WAT,Upper Salmon A,ID,,,,,,,
559,823,Upper Malad,42.86427,-114.886,ID,EXCLUDE,WAT,Upper Malad,ID,,,,,,,
560,825,Ashton,44.07863,-111.497,ID,EXCLUDE,WAT,Ashton,ID,,,,,,,
561,826,Cove,42.51444,-111.793,ID,EXCLUDE,WAT,Cove,ID,,,,,,,
562,827,Grace,42.53675,-111.794,ID,EXCLUDE,WAT,Grace,ID,,,,,,,
563,829,Oneida,42.26777,-111.749,ID,EXCLUDE,WAT,Oneida,ID,,,,,,,
564,831,Soda,42.64455,-111.697,ID,EXCLUDE,WAT,Soda,ID,,,,,,,
565,833,Cabinet Gorge,48.08444,-116.053,ID,EXCLUDE,WAT,Cabinet Gorge,ID,,,,,,,
566,835,Post Falls,47.70333,-116.954,ID,EXCLUDE,WAT,Post Falls,ID,,,,,,,
567,839,Scott Flat,39.27211,-120.933,CA,EXCLUDE,WAT,Scott Flat,CA,,,,,,,
568,840,Dworshak,46.5143,-116.298,ID,EXCLUDE,WAT,Dworshak,ID,,,,,,,
569,841,City Power Plant,43.4914,-112.045,ID,EXCLUDE,WAT,City Power Plant,ID,,,,,,,
570,843,Lower No,43.4684,-112.063,ID,EXCLUDE,WAT,Lower No 2,ID,,,,,,,
571,844,Upper Power Plant,43.5527,-112.051,ID,EXCLUDE,WAT,Upper Power Plant,ID,,,,,,,
572,846,Combie South,39.0096,-121.059,CA,EXCLUDE,WAT,Combie South,CA,,,,,,,
573,850,Palisades Dam,43.33485,-111.206,ID,EXCLUDE,WAT,Palisades,ID,,,,,,,
574,851,Albeni Falls,48.18025,-116.999,ID,EXCLUDE,WAT,Albeni Falls,ID,,,,,,,
575,856,E D Edwards,40.5958,-89.6631,IL,COALST,SUB,E D Edwards,IL,,,,,,,
576,860,Sterling Avenue,40.62528,-89.6311,IL,EXCLUDE,NG,Sterling Avenue,IL,,,,,,,
577,861,Coffeen,39.0586,-89.4031,IL,COALST,SUB,Coffeen,IL,,,,,,,
578,862,Grand Tower Energy Center LLC,37.6577,-89.5112,IL,NGCC,NG,Grand Tower,IL,,,,,,,
579,863,Hutsonville,39.1333,-87.6597,IL,EXCLUDE,SUB,Hutsonville,IL,,,,,,,
580,864,Meredosia,39.82333,-90.5672,IL,EXCLUDE,BIT,Meredosia,IL,,,,,,,
581,865,Bloom,42.05722,-87.8694,IL,EXCLUDE,DFO,Bloom,IL,,,,,,,
582,866,Calumet,41.71361,-87.5428,IL,EXCLUDE,NG,Calumet,IL,,,,,,,
583,867,Crawford,41.82848,-87.7229,IL,EXCLUDE,NG,Crawford,IL,,,,,,,
584,869,Dresden Generating Station,41.39,-88.27,IL,EXCLUDE,NUC,Dresden Generating Station,IL,,,,,,,
585,870,Electric Junction,42.77389,-88.0833,IL,EXCLUDE,NG,Electric Junction,IL,,,,,,,
586,874,Joliet,41.4931,-88.1153,IL,EXCLUDE,NG,Joliet 9,IL,,,,,,,
587,876,Kincaid Generation LLC,39.59056,-89.4964,IL,COALST,SUB,Kincaid Generation LLC,IL,,,,,,,
588,877,Lombard,41.89,-88.0617,IL,EXCLUDE,KER,Lombard,IL,,,,,,,
589,879,Powerton,40.5408,-89.6786,IL,COALST,SUB,Powerton,IL,,,,,,,
590,880,Quad Cities Generating Station,41.72611,-90.3103,IL,EXCLUDE,NUC,Quad Cities Generating Station,IL,,,,,,,
591,882,Sabrooke,42.21694,-89.0522,IL,EXCLUDE,DFO,Sabrooke,IL,,,,,,,
592,883,Waukegan,42.3833,-87.8133,IL,EXCLUDE,DFO,Waukegan,IL,,,,,,,
593,884,Will County,41.6334,-88.0629,IL,EXCLUDE,SUB,Will County,IL,,,,,,,
594,886,Fisk Street,41.8508,-87.6533,IL,COALST,SUB,Fisk Street,IL,,,,,,,
595,887,Joppa Steam,37.2094,-88.8589,IL,COALST,SUB,Joppa Steam,IL,,,,,,,
596,889,Baldwin Energy Complex,38.205,-89.8544,IL,COALST,SUB,Baldwin Energy Complex,IL,,,,,,,
597,891,Havana,40.2797,-90.08,IL,OGST,RFO,Havana,IL,,,,,,,
598,892,Hennepin Power Station,41.3028,-89.315,IL,COALST,SUB,Hennepin Power Station,IL,,,,,,,
599,894,Oglesby,41.2897,-89.0725,IL,EXCLUDE,NG,Oglesby,IL,,,,,,,
600,895,Stallings,38.7314,-90.0461,IL,EXCLUDE,NG,Stallings,IL,,,,,,,
601,897,Vermilion,40.1781,-87.7481,IL,EXCLUDE,SUB,Vermilion,IL,,,,,,,
602,898,Wood River,38.8639,-90.1347,IL,EXCLUDE,NG,Wood River,IL,,,,,,,
603,899,Moline,41.50996,-90.534,IL,EXCLUDE,NG,Moline,IL,,,,,,,
604,902,Bottle Rock Power,38.8348,-122.768,CA,EXCLUDE,GEO,Bottle Rock Power,CA,,,,,,,
605,903,Rockton,42.4511,-89.0756,IL,EXCLUDE,WAT,Rockton,IL,,,,,,,
606,905,Alamo,34.8158,-118.687,CA,EXCLUDE,WAT,Alamo,CA,,,,,,,
607,913,Venice,38.6642,-90.1764,IL,EXCLUDE,DFO,Venice,IL,,,,,,,
608,917,Quincy Chute,46.98251,-119.258,WA,EXCLUDE,WAT,Quincy Chute,WA,,,,,,,
609,925,Hydro Plant No,39.20562,-111.334,UT,EXCLUDE,WAT,Hydro Plant No 3,UT,,,,,,,
610,934,Breese,38.60746,-89.5245,IL,EXCLUDE,DFO,Breese,IL,,,,,,,
611,935,Bushnell,40.5483,-90.5408,IL,EXCLUDE,DFO,Bushnell,IL,,,,,,,
612,936,Carlyle,38.6106,-89.3583,IL,EXCLUDE,DFO,Carlyle,IL,,,,,,,
613,937,Carmi,38.0967,-88.1631,IL,EXCLUDE,NG,Carmi,IL,,,,,,,
614,940,Fairfield,38.37972,-88.3594,IL,EXCLUDE,DFO,Fairfield,IL,,,,,,,
615,941,Farmer City,40.24611,-88.6388,IL,EXCLUDE,NG,Farmer City,IL,,,,,,,
616,943,Freeburg,38.42556,-89.9144,IL,EXCLUDE,DFO,Freeburg,IL,,,,,,,
617,944,Geneseo,41.45149,-90.1485,IL,EXCLUDE,NG,Geneseo,IL,,,,,,,
618,946,Highland,38.7333,-89.6875,IL,EXCLUDE,DFO,Highland,IL,,,,,,,
619,948,McLeansboro,38.0925,-88.5453,IL,EXCLUDE,DFO,McLeansboro,IL,,,,,,,
620,949,Marshall (IL),39.39214,-87.6851,IL,EXCLUDE,DFO,Marshall,IL,,,,,,,
621,955,Peru (IL),41.3237,-89.1123,IL,EXCLUDE,DFO,Peru,IL,,,,,,,
622,956,C H Corn Hydroelectric Facility,30.38852,-84.6466,FL,EXCLUDE,WAT,C H Corn Hydroelectric Facility,FL,,,,,,,
623,957,Princeton (IL),41.3767,-89.3817,IL,EXCLUDE,NG,Princeton,IL,,,,,,,
624,958,Rantoul,40.31222,-88.1594,IL,EXCLUDE,DFO,Rantoul,IL,,,,,,,
625,959,Red Bud,38.2064,-89.9931,IL,EXCLUDE,DFO,Red Bud,IL,,,,,,,
626,960,North Ninth Street,41.9093,-89.0498,IL,EXCLUDE,DFO,North Ninth Street,IL,,,,,,,
627,961,South Main Street,41.9092,-89.0504,IL,EXCLUDE,NG,South Main Street,IL,,,,,,,
628,963,Dallman,39.7548,-89.6024,IL,COALST,BIT,Dallman,IL,,,,,,,
629,964,Lakeside,39.75733,-89.6005,IL,EXCLUDE,BIT,Lakeside,IL,,,,,,,
630,965,Reynolds,39.80687,-89.6417,IL,EXCLUDE,DFO,Reynolds,IL,,,,,,,
631,969,Sullivan (IL),39.59667,-88.6119,IL,EXCLUDE,DFO,Sullivan,IL,,,,,,,
632,971,Waterloo,38.33479,-90.1589,IL,EXCLUDE,DFO,Waterloo,IL,,,,,,,
633,972,Winnetka,42.11559,-87.731,IL,EXCLUDE,NG,Winnetka,IL,,,,,,,
634,976,Marion,37.61975,-88.9531,IL,COALST,BIT,Marion,IL,,,,,,,
635,981,State Line Energy,41.7072,-87.5217,IN,COALST,SUB,State Line Energy,IN,,,,,,,
636,983,Clifty Creek,38.7378,-85.4206,IN,COALST,SUB,Clifty Creek,IN,,,,,,,
637,986,Elkhart,41.6928,-85.965,IN,EXCLUDE,WAT,Elkhart,IN,,,,,,,
638,987,Last Chance,42.60335,-111.705,ID,EXCLUDE,WAT,Last Chance,ID,,,,,,,
639,988,Tanners Creek,39.0814,-84.8594,IN,COALST,BIT,Tanners Creek,IN,,,,,,,
640,989,Twin Branch,41.665,-86.1322,IN,EXCLUDE,WAT,Twin Branch,IN,,,,,,,
641,990,Harding Street,39.71132,-86.1969,IN,OGST,DFO,Harding Street,IN,,,,,,,
642,991,Eagle Valley (IN),39.48517,-86.4183,IN,OGST,DFO,Eagle Valley,IN,,,,,,,
643,992,CC Perry K,39.7631,-86.1667,IN,EXCLUDE,BIT,CC Perry K,IN,,,,,,,
644,994,AES Petersburg,38.5281,-87.2525,IN,COALST,BIT,AES Petersburg,IN,,,,,,,
645,995,Bailly,41.645,-87.1225,IN,EXCLUDE,NG,Bailly,IN,,,,,,,
646,996,Dean H Mitchell,41.6392,-87.4069,IN,EXCLUDE,SUB,Dean H Mitchell,IN,,,,,,,
647,997,Michigan City,41.7208,-86.9086,IN,COALST,SUB,Michigan City,IN,,,,,,,
648,998,Norway (IN),40.7803,-86.76,IN,EXCLUDE,WAT,Norway,IN,,,,,,,
649,999,Oakdale,40.6564,-86.7528,IN,EXCLUDE,WAT,Oakdale,IN,,,,,,,
650,1001,Cayuga,39.9242,-87.4244,IN,COALST,BIT,Cayuga,IN,,,,,,,
651,1002,Connersville,39.6561,-85.1758,IN,EXCLUDE,DFO,Connersville,IN,,,,,,,
652,1004,Edwardsport,38.8067,-87.2472,IN,EXCLUDE,DFO,Edwardsport,IN,,,,,,,
653,1005,Markland,38.7795,-84.964,IN,EXCLUDE,WAT,Markland,IN,,,,,,,
654,1006,Miami Wabash,40.7884,-85.8178,IN,EXCLUDE,DFO,Miami Wabash,IN,,,,,,,
655,1007,Noblesville,40.0969,-85.9714,IN,NGCC,NG,Noblesville,IN,,,,,,,
656,1008,R Gallagher,38.2636,-85.8381,IN,COALST,BIT,R Gallagher,IN,,,,,,,
657,1010,Wabash River,39.53,-87.4247,IN,COALST,BIT,Wabash Valley Power IGCC,IN,,,,,,,
658,1011,Broadway (IN),37.96912,-87.6049,IN,EXCLUDE,NG,Broadway,IN,,,,,,,
659,1012,F B Culley,37.9111,-87.3275,IN,EXCLUDE,BIT,F B Culley,IN,,,,,,,
660,1013,Northeast (IN),38.0211,-87.5172,IN,EXCLUDE,NG,Northeast,IN,,,,,,,
661,1016,Butler-Warner Generation Plant,35.0986,-78.8294,NC,NGCC,NG,Butler-Warner Generation Plant,NC,,,,,,,
662,1020,Manti Lower,39.25591,-111.621,UT,EXCLUDE,WAT,Manti Lower,UT,,,,,,,
663,1024,Crawfordsville Power Plant,40.04889,-86.8992,IN,EXCLUDE,BIT,Crawfordsville,IN,,,,,,,
664,1032,Logansport,40.75886,-86.3603,IN,EXCLUDE,BIT,Logansport,IN,,,,,,,
665,1037,Peru (IN),40.7551,-86.0575,IN,EXCLUDE,BIT,Peru,IN,,,,,,,
666,1038,Rensselaer City Light Plant,40.93953,-87.1545,IN,EXCLUDE,DFO,Rensselaer City Light Plant,IN,,,,,,,
667,1040,Whitewater Valley,39.8028,-84.8953,IN,COALST,BIT,Whitewater Valley,IN,,,,,,,
668,1043,Frank E Ratts,38.5201,-87.2662,IN,COALST,BIT,Frank E Ratts,IN,,,,,,,
669,1046,Dubuque,42.5031,-90.6586,IA,OGST,NG,Dubuque,IA,,,,,,,
670,1047,Lansing,43.3359,-91.1675,IA,EXCLUDE,SUB,Lansing,IA,,,,,,,
671,1048,Milton L Kapp,41.8081,-90.2336,IA,EXCLUDE,NG,Milton L Kapp,IA,,,,,,,
672,1052,Ames Diesel Generating Station,42.01332,-93.5754,IA,EXCLUDE,DFO,Ames Diesel Generating Station,IA,,,,,,,
673,1058,Sixth Street,41.98477,-91.6686,IA,EXCLUDE,BIT,Sixth Street,IA,,,,,,,
674,1060,Duane Arnold Energy Center,42.1011,-91.7781,IA,EXCLUDE,NUC,Duane Arnold Energy Center,IA,,,,,,,
675,1067,Iowa Hydro LLC,42.06999,-90.6977,IA,EXCLUDE,WAT,Iowa Hydro LLC,IA,,,,,,,
676,1068,Marshalltown,42.048,-92.8594,IA,EXCLUDE,DFO,Marshalltown,IA,,,,,,,
677,1073,Prairie Creek,41.94404,-91.6392,IA,EXCLUDE,SUB,Prairie Creek,IA,,,,,,,
678,1077,Sutherland,42.04733,-92.8594,IA,OGST,NG,Sutherland,IA,,,,,,,
679,1079,Coralville GT,41.67188,-91.564,IA,EXCLUDE,NG,Coralville GT,IA,,,,,,,
680,1081,Riverside,41.54,-90.4481,IA,EXCLUDE,SUB,Riverside,IA,,,,,,,
681,1082,Walter Scott Jr Energy Center,41.18,-95.8408,IA,COALST,SUB,Walter Scott Jr Energy Center,IA,,,,,,,
682,1084,River Hills,41.59022,-93.6195,IA,EXCLUDE,NG,River Hills,IA,,,,,,,
683,1091,George Neal North,42.29979,-96.3617,IA,COALST,SUB,George Neal North,IA,,,,,,,
684,1097,Merle Parr,43.0563,-92.6932,IA,EXCLUDE,NG,Merle Parr,IA,,,,,,,
685,1104,Burlington (IA),40.7412,-91.1167,IA,COALST,SUB,Burlington,IA,,,,,,,
686,1105,Centerville,40.7478,-92.8731,IA,EXCLUDE,DFO,Centerville,IA,,,,,,,
687,1109,Keokuk,40.3965,-91.3719,IA,EXCLUDE,WAT,Keokuk,IA,,,,,,,
688,1120,Algona,43.0733,-94.2392,IA,EXCLUDE,DFO,Algona,IA,,,,,,,
689,1121,Alta Municipal Utilities,42.6733,-95.3039,IA,EXCLUDE,DFO,Alta Municipal Utilities,IA,,,,,,,
690,1122,Ames Electric Services Power Plant,42.0258,-93.6089,IA,COALST,SUB,Ames Electric Services Power Plant,IA,,,,,,,
691,1123,Anita,41.4444,-94.7689,IA,EXCLUDE,DFO,Anita,IA,,,,,,,
692,1124,Atlantic,41.409,-95,IA,EXCLUDE,DFO,Atlantic,IA,,,,,,,
693,1125,Bancroft,43.29263,-94.2171,IA,EXCLUDE,DFO,Bancroft,IA,,,,,,,
694,1126,Bellevue,42.25,-90.4167,IA,EXCLUDE,DFO,Bellevue,IA,,,,,,,
695,1127,Bloomfield,40.7031,-92.4253,IA,EXCLUDE,NG,Bloomfield,IA,,,,,,,
696,1128,Brooklyn,41.7278,-92.4479,IA,EXCLUDE,DFO,Brooklyn,IA,,,,,,,
697,1129,Cascade,42.2275,-91.1137,IA,EXCLUDE,DFO,Cascade,IA,,,,,,,
698,1130,Gas Turbine (IA),42.512,-92.476,IA,EXCLUDE,NG,Gas Turbine,IA,,,,,,,
699,1131,Streeter Station,42.5267,-92.4394,IA,EXCLUDE,BIT,Streeter Station,IA,,,,,,,
700,1132,Coggon,42.2925,-91.5581,IA,EXCLUDE,DFO,Coggon,IA,,,,,,,
701,1134,Corning,40.974,-94.7669,IA,EXCLUDE,DFO,Corning,IA,,,,,,,
702,1135,Dayton (IA),42.2525,-94.0581,IA,EXCLUDE,DFO,Dayton,IA,,,,,,,
703,1137,Estherville,43.4028,-94.8433,IA,EXCLUDE,DFO,Estherville,IA,,,,,,,
704,1138,Forest City Light Plant,43.26324,-93.6354,IA,EXCLUDE,DFO,Forest City Light Plant,IA,,,,,,,
705,1141,Gowrie,42.27451,-94.2702,IA,EXCLUDE,DFO,Gowrie,IA,,,,,,,
706,1142,Graettinger,43.2397,-94.7498,IA,EXCLUDE,DFO,Graettinger,IA,,,,,,,
707,1143,Grand Junction,42.0296,-94.3699,IA,EXCLUDE,DFO,Grand Junction,IA,,,,,,,
708,1144,Greenfield,41.30389,-94.4606,IA,EXCLUDE,DFO,Greenfield,IA,,,,,,,
709,1145,Grundy Center City Light Plant,42.36309,-92.7723,IA,EXCLUDE,DFO,Grundy Center City Light Plant,IA,,,,,,,
710,1146,Harlan,41.64454,-95.3153,IA,EXCLUDE,DFO,Harlan,IA,,,,,,,
711,1149,Independence (IA),42.4753,-91.8872,IA,EXCLUDE,DFO,Independence,IA,,,,,,,
712,1150,Indianola,41.35949,-93.5633,IA,EXCLUDE,DFO,Indianola,IA,,,,,,,
713,1153,Lake Park,43.4301,-95.3153,IA,EXCLUDE,DFO,Lake Park,IA,,,,,,,
714,1154,Lake Mills,43.4172,-93.5322,IA,EXCLUDE,DFO,Lake Mills,IA,,,,,,,
715,1155,Lamoni Municipal Utilities,40.622,-93.9326,IA,EXCLUDE,DFO,Lamoni Municipal Utilities,IA,,,,,,,
716,1156,La Porte,42.3194,-92.1967,IA,EXCLUDE,DFO,La Porte,IA,,,,,,,
717,1157,Laurens,42.8486,-94.8506,IA,EXCLUDE,DFO,Laurens,IA,,,,,,,
718,1158,Lenox,40.88,-94.5589,IA,EXCLUDE,DFO,Lenox,IA,,,,,,,
719,1160,Manning,41.9067,-95.0347,IA,EXCLUDE,DFO,Manning,IA,,,,,,,
720,1162,Maquoketa,42.03556,-90.665,IA,EXCLUDE,NG,Maquoketa 1,IA,,,,,,,
721,1163,McGregor,43.02373,-91.1749,IA,EXCLUDE,DFO,McGregor,IA,,,,,,,
722,1164,Milford,43.32608,-95.1483,IA,EXCLUDE,DFO,Milford,IA,,,,,,,
723,1165,Montezuma,41.58603,-92.5228,IA,EXCLUDE,DFO,Montezuma,IA,,,,,,,
724,1166,Mt Pleasant,40.9742,-91.5622,IA,EXCLUDE,DFO,Mt Pleasant,IA,,,,,,,
725,1167,Muscatine Plant,41.3917,-91.0569,IA,EXCLUDE,SUB,Muscatine Plant #1,IA,,,,,,,
726,1168,New Hampton,43.0689,-92.3201,IA,EXCLUDE,NG,New Hampton,IA,,,,,,,
727,1169,Ogden,42.0372,-94.0462,IA,EXCLUDE,DFO,Ogden,IA,,,,,,,
728,1172,Osage (IA),43.27972,-92.8106,IA,EXCLUDE,NG,Osage,IA,,,,,,,
729,1173,Ottumwa City of,41.01635,-92.4149,IA,EXCLUDE,WAT,Ottumwa City of,IA,,,,,,,
730,1175,Pella,41.3981,-92.9144,IA,EXCLUDE,SUB,Pella,IA,,,,,,,
731,1176,Preston (IA),42.0661,-90.3911,IA,EXCLUDE,DFO,Preston,IA,,,,,,,
732,1177,Primghar,43.08713,-95.626,IA,EXCLUDE,DFO,Primghar,IA,,,,,,,
733,1180,Rockford,43.053,-92.9597,IA,EXCLUDE,DFO,Rockford,IA,,,,,,,
734,1181,Rock Rapids,43.42944,-96.1692,IA,EXCLUDE,DFO,Rock Rapids,IA,,,,,,,
735,1184,Sibley One,43.405,-95.7261,IA,EXCLUDE,DFO,Sibley One,IA,,,,,,,
736,1186,Spencer Gas Turbine,43.14459,-95.1443,IA,EXCLUDE,KER,Spencer,IA,,,,,,,
737,1187,State Center,42.01667,-93.1633,IA,EXCLUDE,DFO,State Center,IA,,,,,,,
738,1188,Story City,42.18608,-93.6005,IA,EXCLUDE,DFO,Story City,IA,,,,,,,
739,1189,Strawberry Point,42.68444,-91.5356,IA,EXCLUDE,DFO,Strawberry Point,IA,,,,,,,
740,1190,Stuart (IA),41.50389,-94.3172,IA,EXCLUDE,DFO,Stuart,IA,,,,,,,
741,1191,Sumner,42.8464,-92.0978,IA,EXCLUDE,NG,Sumner,IA,,,,,,,
742,1192,Traer Main,42.1926,-92.4636,IA,EXCLUDE,DFO,Traer Main,IA,,,,,,,
743,1193,Villisca Municipal Power Plant,40.9556,-94.9758,IA,EXCLUDE,DFO,Villisca Municipal Power Plant,IA,,,,,,,
744,1194,Vinton,42.1697,-92.0222,IA,EXCLUDE,DFO,Vinton,IA,,,,,,,
745,1198,Webster City,42.47102,-93.815,IA,EXCLUDE,DFO,Webster City,IA,,,,,,,
746,1199,West Bend,42.96115,-94.4456,IA,EXCLUDE,DFO,West Bend,IA,,,,,,,
747,1200,West Liberty,41.56913,-91.2641,IA,EXCLUDE,DFO,West Liberty,IA,,,,,,,
748,1201,Whittemore,43.06444,-94.4219,IA,EXCLUDE,DFO,Whittemore,IA,,,,,,,
749,1202,Wilton,41.58775,-91.0195,IA,EXCLUDE,DFO,Wilton,IA,,,,,,,
750,1203,Winterset,41.3215,-94.0219,IA,EXCLUDE,DFO,Winterset,IA,,,,,,,
751,1206,Summit Lake,41.1136,-94.3472,IA,EXCLUDE,NG,Summit Lake,IA,,,,,,,
752,1217,Earl F Wisdom,43.1606,-95.2569,IA,COALST,BIT,Earl F Wisdom,IA,,,,,,,
753,1218,Fair Station,41.4569,-90.8233,IA,EXCLUDE,BIT,Fair Station,IA,,,,,,,
754,1224,Bird City,39.7581,-101.532,KS,EXCLUDE,DFO,Bird City,KS,,,,,,,
755,1225,Colby,39.403,-101.038,KS,EXCLUDE,NG,Colby,KS,,,,,,,
756,1230,Cimarron River,37.1611,-100.762,KS,OGST,NG,Cimarron River,KS,,,,,,,
757,1233,Fort Dodge,37.7328,-99.9497,KS,OGST,NG,Fort Dodge,KS,,,,,,,
758,1235,Great Bend - Sunflower,38.41,-98.8689,KS,OGST,NG,Great Bend,KS,,,,,,,
759,1239,Riverton,37.07262,-94.6987,KS,EXCLUDE,NG,Riverton,KS,,,,,,,
760,1240,Gordon Evans Energy Center,37.7903,-97.5217,KS,OGST,NG,Gordon Evans Energy Center,KS,,,,,,,
761,1241,La Cygne,38.3481,-94.6456,KS,COALST,SUB,La Cygne,KS,,,,,,,
762,1242,Murray Gill,37.5967,-97.4136,KS,OGST,NG,Murray Gill,KS,,,,,,,
763,1243,Neosho,37.30556,-95.1103,KS,OGST,NG,Neosho,KS,,,,,,,
764,1248,Hutchinson Energy Center,38.0906,-97.8747,KS,EXCLUDE,NG,Hutchinson Energy Center,KS,,,,,,,
765,1250,Lawrence Energy Center,39.0072,-95.2692,KS,EXCLUDE,BIT,Lawrence Energy Center,KS,,,,,,,
766,1251,Abilene Energy Center Combustion Turbine,38.8831,-97.2014,KS,EXCLUDE,NG,Abilene Energy Center Combustion Turbine,KS,,,,,,,
767,1252,Tecumseh Energy Center,39.0539,-95.5689,KS,EXCLUDE,DFO,Tecumseh Energy Center,KS,,,,,,,
768,1258,Anthony,37.1517,-98.0311,KS,EXCLUDE,NG,Anthony,KS,,,,,,,
769,1259,Ashland,37.19379,-99.7631,KS,EXCLUDE,NG,Ashland,KS,,,,,,,
770,1260,Attica,37.2419,-98.2336,KS,EXCLUDE,DFO,Attica,KS,,,,,,,
771,1261,Augusta Electric Plant No,37.67845,-96.9719,KS,EXCLUDE,NG,Augusta Electric Plant No 1,KS,,,,,,,
772,1262,Baldwin City Plant No,38.7897,-95.205,KS,EXCLUDE,DFO,Baldwin City Plant No 1,KS,,,,,,,
773,1263,Belleville,39.8081,-97.6505,KS,EXCLUDE,DFO,Belleville,KS,,,,,,,
774,1264,Beloit,39.4578,-98.1122,KS,EXCLUDE,DFO,Beloit,KS,,,,,,,
775,1265,Burlingame,38.7633,-95.8528,KS,EXCLUDE,NG,Burlingame,KS,,,,,,,
776,1266,Burlington (KS),38.19318,-95.4458,KS,EXCLUDE,DFO,Burlington,KS,,,,,,,
777,1267,1267,1267,1267,1267,EXCLUDE,NG,Chanute 1,KS,,,,,,,
778,1268,Chanute,37.6953,-95.4586,KS,EXCLUDE,NG,Chanute 2,KS,,,,,,,
779,1270,Clay Center,39.37397,-97.1272,KS,EXCLUDE,NG,Clay Center,KS,,,,,,,
780,1271,Coffeyville,37.03734,-95.6127,KS,EXCLUDE,DFO,Coffeyville,KS,,,,,,,
781,1272,Colby City of,39.39441,-101.058,KS,EXCLUDE,DFO,Colby City of,KS,,,,,,,
782,1274,Ellinwood,38.35556,-98.5806,KS,EXCLUDE,DFO,Ellinwood,KS,,,,,,,
783,1275,Ellis,38.947222,-99.528611,KS,EXCLUDE,NG,Ellis,KS,,,,,,,
784,1276,Erie,37.56681,-95.2375,KS,EXCLUDE,DFO,Erie,KS,,,,,,,
785,1278,Garnett Municipal,38.2858,-95.2594,KS,EXCLUDE,DFO,Garnett Municipal,KS,,,,,,,
786,1279,Girard,37.50771,-94.8393,KS,EXCLUDE,NG,Girard,KS,,,,,,,
787,1280,Goodland,39.34162,-101.705,KS,EXCLUDE,NG,Goodland,KS,,,,,,,
788,1283,Herington,38.6728,-96.9411,KS,EXCLUDE,DFO,Herington,KS,,,,,,,
789,1285,Hill City,39.3781,-99.8239,KS,EXCLUDE,NG,Hill City,KS,,,,,,,
790,1286,Hoisington,38.5275,-98.7758,KS,EXCLUDE,DFO,Hoisington,KS,not in EIA,,,exclude,,,
791,1287,Holton,39.4735,-95.7316,KS,EXCLUDE,DFO,Holton,KS,,,,,,,
792,1289,Hugoton,37.175,-101.346,KS,EXCLUDE,DFO,Hugoton 1,KS,,,,,,,
793,1291,Iola,37.92308,-95.4256,KS,EXCLUDE,NG,Iola,KS,,,,,,,
794,1292,Jetmore,38.0853,-99.8989,KS,EXCLUDE,DFO,Jetmore,KS,,,,,,,
795,1294,Kaw,39.0867,-94.6514,KS,OGST,NG,Kaw,KS,,,,,,,
796,1295,Quindaro,39.1492,-94.6381,KS,EXCLUDE,NG,Quindaro,KS,didn't have elec. plant consumption,plant gen,,exclude,,,
797,1296,Kingman Municipal Power and Light Plant,37.38311,-98.0704,KS,EXCLUDE,NG,Kingman Municipal Power and Light Plant,KS,,,,,,,
798,1297,La Crosse,38.53167,-99.3083,KS,EXCLUDE,DFO,La Crosse,KS,,,,,,,
799,1298,1298,1298,1298,1298,EXCLUDE,NG,Gas Turbine,KS,,,,,,,
800,1299,Larned,38.17972,-99.1125,KS,EXCLUDE,NG,Larned,KS,,,,,,,
801,1300,Lincoln,39.0408,-98.1472,KS,EXCLUDE,NG,Lincoln,KS,,,,,,,
802,1305,McPherson,38.36341,-97.6834,KS,EXCLUDE,NG,McPherson 2,KS,,,,,,,
803,1306,Meade,37.225,-100.326,KS,EXCLUDE,NG,Meade,KS,,,,,,,
804,1307,Minneapolis City of,39.1194,-97.7086,KS,EXCLUDE,DFO,Minneapolis City of,KS,,,,,,,
805,1308,Mulvane Power Plant,37.47245,-97.2467,KS,EXCLUDE,DFO,Mulvane Power Plant,KS,,,,,,,
806,1311,Oakely,39.1214,-100.853,KS,EXCLUDE,NG,Oakely,KS,,,,,,,
807,1312,Oberlin (KS),39.8217,-100.529,KS,EXCLUDE,NG,Oberlin,KS,,,,,,,
808,1313,Osage City,38.6406,-95.8186,KS,EXCLUDE,NG,Osage City,KS,,,,,,,
809,1314,Osawatomie City of,38.5042,-94.9775,KS,EXCLUDE,DFO,Osawatomie City of,KS,,,,,,,
810,1315,Osborne,39.44198,-98.6903,KS,EXCLUDE,DFO,Osborne,KS,,,,,,,
811,1316,Ottawa,38.61558,-95.2797,KS,EXCLUDE,NG,Ottawa,KS,,,,,,,
812,1317,Pratt,37.6359,-98.7433,KS,EXCLUDE,NG,Pratt,KS,not in EIA,,,exclude,,,
813,1319,Russell Downtown,38.89333,-98.8569,KS,EXCLUDE,NG,Russell Downtown,KS,,,,,,,
814,1320,Sabetha Power Plant,39.90492,-95.8034,KS,EXCLUDE,DFO,Sabetha Power Plant,KS,,,,,,,
815,1321,St Francis,39.7736,-101.812,KS,EXCLUDE,DFO,St Francis,KS,,,,,,,
816,1322,St John,38.0083,-98.7633,KS,EXCLUDE,DFO,St John,KS,,,,,,,
817,1324,Sharon Spring,38.8917,-101.748,KS,EXCLUDE,NG,Sharon Spring,KS,,,,,,,
818,1325,Stafford,37.9553,-98.5928,KS,EXCLUDE,DFO,Stafford,KS,,,,,,,
819,1326,Sterling,38.2025,-98.1986,KS,EXCLUDE,DFO,Sterling,KS,,,,,,,
820,1327,Stockton,39.3772,-99.2947,KS,EXCLUDE,NG,Stockton,KS,,,,,,,
821,1328,Wamego,39.1992,-96.3086,KS,EXCLUDE,NG,Wamego,KS,,,,,,,
822,1329,Washington,39.8189,-97.0556,KS,EXCLUDE,DFO,Washington,KS,,,,,,,
823,1330,Wellington,37.26137,-97.4057,KS,EXCLUDE,NG,Wellington 1,KS,,,,,,,
824,1332,West,37.2354,-97.011,KS,EXCLUDE,NG,West 14th Street,KS,,,,,,,
825,1334,Great Bend - Midwest Energy,38.3708,-98.7831,KS,EXCLUDE,NG,Great Bend,KS,,,,,,,
826,1336,Garden City,37.9703,-100.896,KS,EXCLUDE,NG,Garden City,KS,,,,,,,
827,1353,Big Sandy,38.1707,-82.6176,KY,COALST,BIT,Big Sandy,KY,,,,,,,
828,1354,Dix Dam,37.7864,-84.7028,KY,EXCLUDE,WAT,Dix Dam,KY,,,,,,,
829,1355,E W Brown,37.78831,-84.7126,KY,COALST,BIT,E W Brown,KY,,,,,,,
830,1356,Ghent,38.7497,-85.035,KY,COALST,BIT,Ghent,KY,,,,,,,
831,1357,Green River,37.3636,-87.1214,KY,EXCLUDE,BIT,Green River,KY,,,,,,,
832,1358,Haefling,38.0794,-84.5194,KY,EXCLUDE,NG,Haefling,KY,,,,,,,
833,1359,Mother Ann Lee,37.8297,-84.7247,KY,EXCLUDE,WAT,Mother Ann Lee,KY,,,,,,,
834,1360,Pineville,36.79667,-83.7614,KY,EXCLUDE,BIT,Pineville,KY,,,,,,,
835,1361,Tyrone,38.0478,-84.8483,KY,EXCLUDE,DFO,Tyrone,KY,,,,,,,
836,1363,Cane Run,38.1831,-85.8892,KY,EXCLUDE,NG,Cane Run,KY,,,,,,,
837,1364,Mill Creek (KY),38.0525,-85.9103,KY,COALST,BIT,Mill Creek,KY,,,,,,,
838,1365,Ohio Falls,38.2832,-85.7792,KY,EXCLUDE,WAT,Ohio Falls,KY,,,,,,,
839,1366,Paddys Run,38.22359,-85.8417,KY,EXCLUDE,NG,Paddys Run,KY,,,,,,,
840,1367,Waterside GT,38.25833,-85.7542,KY,EXCLUDE,NG,Waterside,KY,,,,,,,
841,1368,Zorn,38.28028,-85.7023,KY,EXCLUDE,NG,Zorn,KY,,,,,,,
842,1371,Barkley,37.0217,-88.2211,KY,EXCLUDE,WAT,Barkley,KY,,,,,,,
843,1374,Elmer Smith,37.7942,-87.0608,KY,COALST,BIT,Elmer Smith,KY,,,,,,,
844,1376,Paris (KY),38.2049,-84.2383,KY,EXCLUDE,DFO,Paris,KY,,,,,,,
845,1377,Kentucky Dam,37.0131,-88.2692,KY,EXCLUDE,WAT,Kentucky Dam,KY,,,,,,,
846,1378,Paradise,37.2608,-86.9783,KY,COALST,BIT,Paradise,KY,,,,,,,
847,1379,Shawnee,37.1517,-88.775,KY,COALST,BIT,Shawnee,KY,,,,,,,
848,1380,Wolf Creek,36.8691,-85.147,KY,EXCLUDE,WAT,Wolf Creek,KY,,,,,,,
849,1381,Kenneth C Coleman,37.9631,-86.7911,KY,COALST,BIT,Kenneth C Coleman,KY,,,,,,,
850,1382,HMP&L Station Two Henderson,37.6469,-87.5028,KY,COALST,BIT,HMP&L Station Two Henderson,KY,,,,,,,
851,1383,Robert A Reid,37.6461,-87.5019,KY,COALST,BIT,Robert A Reid,KY,,,,,,,
852,1384,Cooper,36.9981,-84.5919,KY,COALST,BIT,Cooper,KY,,,,,,,
853,1385,Dale,37.8806,-84.2619,KY,COALST,BIT,Dale,KY,,,,,,,
854,1391,Louisiana,30.4922,-91.1864,LA,EXCLUDE,NG,Louisiana 1,LA,,,,,,,
855,1392,1392,1392,1392,1392,OGST,NG,Louisiana 2,LA,,,,,,,
856,1393,R S Nelson,30.2844,-93.2911,LA,EXCLUDE,PC,R S Nelson,LA,,,,,,,
857,1394,Willow Glen,30.2743,-91.1164,LA,OGST,NG,Willow Glen,LA,,,,,,,
858,1396,Coughlin Power Station,30.8439,-92.2611,LA,NGCC,NG,Coughlin Power Station,LA,,,,,,,
859,1400,Teche,29.82222,-91.5425,LA,EXCLUDE,NG,Teche,LA,,,,,,,
860,1401,Buras,29.35915,-89.5373,LA,EXCLUDE,NG,Buras,LA,,,,,,,
861,1402,Little Gypsy,30.00507,-90.4617,LA,OGST,NG,Little Gypsy,LA,,,,,,,
862,1403,Nine Mile Point,29.9472,-90.1458,LA,EXCLUDE,NG,Nine Mile Point,LA,,,,,,,
863,1404,Sterlington,32.7047,-92.0792,LA,OGST,NG,Sterlington,LA,,,,,,,
864,1407,A B Paterson,30.01583,-90.0256,LA,EXCLUDE,NG,A B Paterson,LA,,,,,,,
865,1409,Michoud,30.0081,-89.9372,LA,EXCLUDE,NG,Michoud,LA,,,,,,,
866,1416,Arsenal Hill,32.5181,-93.7611,LA,OGST,NG,Arsenal Hill,LA,,,,,,,
867,1417,Lieberman,32.7047,-93.9597,LA,EXCLUDE,NG,Lieberman,LA,,,,,,,
868,1435,Franklin (LA),29.82222,-91.5425,LA,EXCLUDE,NG,Franklin,LA,not in EIA,,,OGST,,,
869,1439,Houma,29.5806,-90.7225,LA,EXCLUDE,NG,Houma,LA,,,,,,,
870,1443,Louis Doc Bonin,30.23804,-92.0463,LA,OGST,NG,Louis Doc Bonin,LA,,,,,,,
871,1445,Rodemacher,30.236111,-92.008333,LA,EXCLUDE,NG,Rodemacher,LA,,,,,,,
872,1447,Minden,32.60464,-93.2944,LA,EXCLUDE,NG,Minden,LA,,,,,,,
873,1448,Monroe,32.5233,-92.1794,LA,EXCLUDE,NG,Monroe,LA,,,,,,,
874,1449,Morgan City,29.69144,-91.1885,LA,EXCLUDE,NG,Morgan City,LA,,,,,,,
875,1453,New Roads,30.72611,-91.3683,LA,EXCLUDE,NG,New Roads,LA,,,,,,,
876,1455,Plaquemine,30.27333,-91.2567,LA,EXCLUDE,NG,Plaquemine,LA,,,,,,,
877,1456,Rayne,30.2044,-92.2486,LA,EXCLUDE,DFO,Rayne,LA,,,,,,,
878,1464,Big Cajun,30.6739,-91.3556,LA,OGST,NG,Big Cajun 1,LA,,,,,,,
879,1466,Bar Harbor,44.3817,-68.2869,ME,EXCLUDE,DFO,Bar Harbor,ME,,,,,,,
880,1468,Eastport,44.9136,-67.0033,ME,EXCLUDE,DFO,Eastport,ME,,,,,,,
881,1469,Ellsworth Hydro Station,44.5442,-68.4306,ME,EXCLUDE,WAT,Ellsworth Hydro Station,ME,,,,,,,
882,1472,Howland Hydro Station,45.2386,-68.6572,ME,EXCLUDE,WAT,Howland Hydro Station,ME,,,,,,,
883,1474,Medway,45.6078,-68.5444,ME,EXCLUDE,DFO,Medway,ME,,,,,,,
884,1475,Milford Hydro Station,44.94206,-68.645,ME,EXCLUDE,WAT,Milford Hydro Station,ME,didn't have elec. plant consumption,plant gen,,exclude,,,
885,1478,Stillwater Hydro Station,44.9094,-68.6833,ME,EXCLUDE,WAT,Stillwater Hydro Station,ME,,,,,,,
886,1479,Veazie Hydro Station,44.8319,-68.7028,ME,EXCLUDE,WAT,Veazie Hydro Station,ME,,,,,,,
887,1480,Androscoggin,44.13533,-70.2015,ME,EXCLUDE,WAT,Androscoggin 3,ME,,,,,,,
888,1481,Bar Mills,43.6136,-70.5525,ME,EXCLUDE,WAT,Bar Mills,ME,,,,,,,
889,1482,Bonny Eagle,43.68769,-70.6116,ME,EXCLUDE,WAT,Bonny Eagle,ME,,,,,,,
890,1483,Brunswick Hydro,43.92049,-69.9678,ME,EXCLUDE,WAT,Brunswick,ME,,,,,,,
891,1484,Cape Gas Turbine,43.6436,-70.2544,ME,EXCLUDE,DFO,Cape Gas Turbine,ME,,,,,,,
892,1486,Cataract Hydro,43.4956,-70.4472,ME,EXCLUDE,WAT,Cataract,ME,,,,,,,
893,1487,Continental Mills,44.092,-70.2219,ME,EXCLUDE,WAT,Continental Mills,ME,,,,,,,
894,1488,Deer Rips,44.13457,-70.2037,ME,EXCLUDE,WAT,Deer Rips,ME,,,,,,,
895,1490,Fort Halifax,44.53861,-69.6278,ME,EXCLUDE,WAT,Fort Halifax,ME,,,,,,,
896,1491,Gulf Island,44.15285,-70.2094,ME,EXCLUDE,WAT,Gulf Island,ME,,,,,,,
897,1492,Harris Hydro,45.4592,-69.8658,ME,EXCLUDE,WAT,Harris,ME,,,,,,,
898,1493,Hiram,43.8525,-70.7969,ME,EXCLUDE,WAT,Hiram,ME,,,,,,,
899,1497,Messalonskee,44.54854,-69.7104,ME,EXCLUDE,WAT,Messalonskee 2 (Oakland),ME,,,,,,,
900,1498,Messalonskee,44.56987,-69.6818,ME,EXCLUDE,WAT,Messalonskee 3,ME,,,,,,,
901,1500,Messalonskee,44.5344,-69.6522,ME,EXCLUDE,WAT,Messalonskee 5,ME,,,,,,,
902,1501,North Gorham,43.80252,-70.4499,ME,EXCLUDE,WAT,North Gorham,ME,,,,,,,
903,1504,Shawmut,44.62952,-69.5835,ME,EXCLUDE,WAT,Shawmut,ME,,,,,,,
904,1505,Skelton,43.5708,-70.5583,ME,EXCLUDE,WAT,Skelton,ME,,,,,,,
905,1507,William F Wyman,43.7508,-70.1567,ME,OGST,RFO,William F Wyman,ME,,,,,,,
906,1508,West Buxton,43.66687,-70.6021,ME,EXCLUDE,WAT,West Buxton,ME,,,,,,,
907,1509,Weston Hydro,44.76388,-69.7183,ME,EXCLUDE,WAT,Weston,ME,,,,,,,
908,1510,Williams Hydro,44.9589,-69.8703,ME,EXCLUDE,WAT,Williams,ME,,,,,,,
909,1511,Wyman Hydro,45.0703,-69.9064,ME,EXCLUDE,WAT,Wyman Hydro,ME,,,,,,,
910,1513,Caribou Generation Station,46.848,-68.0026,ME,EXCLUDE,RFO,Caribou Generation Station,ME,,,,,,,
911,1514,Flos Inn Diesel,46.71,-67.9556,ME,EXCLUDE,DFO,Flos Inn Diesel,ME,,,,,,,
912,1516,Squa Pan Hydro Station,46.55648,-68.3255,ME,EXCLUDE,WAT,Squa Pan Hydro Station,ME,,,,,,,
913,1552,C P Crane,39.3236,-76.3651,MD,COALST,SUB,C P Crane,MD,,,,,,,
914,1553,Gould Street,39.2663,-76.6047,MD,OGST,NG,Gould Street,MD,,,,,,,
915,1554,Herbert A Wagner,39.1781,-76.5268,MD,OGST,NG,Herbert A Wagner,MD,,,,,,,
916,1555,Notch Cliff,39.4217,-76.5087,MD,EXCLUDE,NG,Notch Cliff,MD,,,,,,,
917,1556,Perryman,39.44284,-76.2218,MD,EXCLUDE,DFO,Perryman,MD,,,,,,,
918,1557,Philadelphia,39.2986,-76.5636,MD,EXCLUDE,DFO,Philadelphia,MD,,,,,,,
919,1559,Riverside (MD),39.2369,-76.5133,MD,OGST,NG,Riverside,MD,,,,,,,
920,1560,Westport,39.2719,-76.6186,MD,EXCLUDE,NG,Westport,MD,,,,,,,
921,1563,Crisfield,37.9833,-75.8333,MD,EXCLUDE,DFO,Crisfield,MD,,,,,,,
922,1564,Vienna Operations,38.4878,-75.8208,MD,EXCLUDE,DFO,Vienna Operations,MD,,,,,,,
923,1567,Deep Creek,39.523,-79.413,MD,EXCLUDE,WAT,Deep Creek,MD,,,,,,,
924,1570,FirstEnergy R Paul Smith Power Station,39.595,-77.8269,MD,COALST,BIT,FirstEnergy R Paul Smith Power Station,MD,,,,,,,
925,1571,Chalk Point LLC,38.5444,-76.6861,MD,OGST,NG,Chalk Point LLC,MD,,,,,,,
926,1572,Dickerson,39.2097,-77.4644,MD,COALST,BIT,Dickerson,MD,,,,,,,
927,1573,Morgantown Generating Plant,38.3592,-76.9767,MD,EXCLUDE,DFO,Morgantown Generating Plant,MD,,,,,,,
928,1574,Conowingo,39.6572,-76.1752,MD,EXCLUDE,WAT,Conowingo,MD,,,,,,,
929,1580,Easton,38.7786,-76.0769,MD,EXCLUDE,DFO,Easton,MD,,,,,,,
930,1585,Exelon Edgar LLC,42.24556,-70.9649,MA,EXCLUDE,DFO,Exelon Edgar LLC,MA,,,,,,,
931,1586,Exelon Framingham LLC,42.2672,-71.3983,MA,EXCLUDE,DFO,Exelon Framingham LLC,MA,,,,,,,
932,1587,Exelon L Street,42.3392,-71.0353,MA,EXCLUDE,DFO,Exelon L Street,MA,,,,,,,
933,1588,Mystic Generating Station,42.3908,-71.0675,MA,EXCLUDE,RFO,Mystic Generating Station,MA,,,,,,,
934,1589,New Boston Generating Station,42.33917,-71.0353,MA,EXCLUDE,NG,New Boston Generating Station,MA,,,,,,,
935,1590,Pilgrim Nuclear Power Station,41.9438,-70.578,MA,EXCLUDE,NUC,Pilgrim Nuclear Power Station,MA,,,,,,,
936,1592,Exelon Medway LLC,42.14003,-71.4464,MA,EXCLUDE,DFO,Exelon Medway LLC,MA,,,,,,,
937,1594,Blackstone Street,42.36417,-71.115,MA,EXCLUDE,RFO,Blackstone Street,MA,,,,,,,
938,1595,Kendall Square Station,42.3633,-71.0792,MA,NGCC,NG,Kendall Square Station,MA,,,,,,,
939,1597,Oak Bluffs Diesel Generating Facility,41.4508,-70.5547,MA,EXCLUDE,DFO,Oak Bluffs Diesel Generating Facility,MA,,,,,,,
940,1599,Canal,41.7694,-70.5097,MA,OGST,RFO,Canal,MA,,,,,,,
941,1603,Boatlock,42.2086,-72.6014,MA,EXCLUDE,WAT,Boatlock,MA,,,,,,,
942,1604,Chemical,42.1919,-72.6097,MA,EXCLUDE,WAT,Chemical,MA,,,,,,,
943,1605,Hadley Falls,42.2119,-72.6036,MA,EXCLUDE,WAT,Hadley Falls,MA,,,,,,,
944,1606,Mount Tom,42.2806,-72.6055,MA,COALST,BIT,Mount Tom,MA,,,,,,,
945,1607,Riverside Holyoke,42.20059,-72.5944,MA,EXCLUDE,WAT,Riverside,MA,,,,,,,
946,1615,Nantucket,41.2583,-70.0517,MA,EXCLUDE,DFO,Nantucket,MA,,,,,,,
947,1619,Brayton Point,41.7103,-71.1931,MA,COALST,BIT,Brayton Point,MA,,,,,,,
948,1620,Deerfield,42.69118,-72.9561,MA,EXCLUDE,WAT,Deerfield 5,MA,,,,,,,
949,1626,Salem Harbor,42.5256,-70.8772,MA,COALST,BIT,Salem Harbor,MA,,,,,,,
950,1629,Cabot,42.5875,-72.5793,MA,EXCLUDE,WAT,Cabot,MA,,,,,,,
951,1630,Cobble Mountain,42.11711,-72.8647,MA,EXCLUDE,WAT,Cobble Mountain,MA,,,,,,,
952,1631,Doreen,42.4433,-73.2058,MA,EXCLUDE,JF,Doreen,MA,,,,,,,
953,1634,Gardners Falls,42.5914,-72.7308,MA,EXCLUDE,WAT,Gardners Falls,MA,,,,,,,
954,1637,Putts Bridge,42.1579,-72.4864,MA,EXCLUDE,WAT,Putts Bridge,MA,,,,,,,
955,1638,Redbridge,42.17605,-72.4095,MA,EXCLUDE,WAT,Redbridge,MA,,,,,,,
956,1642,NAEA Energy Massachusetts LLC,42.095,-72.595,MA,OGST,NG,NAEA Energy Massachusetts LLC,MA,,,,,,,
957,1643,Woodland Road,42.33622,-73.2355,MA,EXCLUDE,KER,Woodland Road,MA,,,,,,,
958,1660,Potter Station,42.235,-70.9672,MA,NGCC,NG,Potter Station 2,MA,,,,,,,
959,1670,High Street Station,42.6986,-70.8697,MA,EXCLUDE,NG,High Street Station,MA,,,,,,,
960,1678,Waters River,42.54295,-70.9283,MA,EXCLUDE,NG,Waters River,MA,,,,,,,
961,1682,Cleary Flood,41.8653,-71.1061,MA,OGST,RFO,Cleary Flood,MA,,,,,,,
962,1693,Alcona,44.56196,-83.8045,MI,EXCLUDE,WAT,Alcona,MI,,,,,,,
963,1694,Allegan Dam,42.5638,-85.954,MI,EXCLUDE,WAT,Allegan Dam,MI,,,,,,,
964,1695,B C Cobb,43.25877,-86.2423,MI,OGST,NG,B C Cobb,MI,,,,,,,
965,1696,B E Morrow,42.28022,-85.4925,MI,EXCLUDE,NG,B E Morrow,MI,,,,,,,
966,1698,C W Tippy,44.25914,-85.9396,MI,EXCLUDE,WAT,C W Tippy,MI,,,,,,,
967,1700,Cooke,44.47262,-83.5719,MI,EXCLUDE,WAT,Cooke,MI,,,,,,,
968,1701,Croton,43.43732,-85.6645,MI,EXCLUDE,WAT,Croton,MI,,,,,,,
969,1702,Dan E Karn,43.645,-83.8401,MI,COALST,SUB,Dan E Karn,MI,,,,,,,
970,1704,Five Channels,44.45552,-83.6763,MI,EXCLUDE,WAT,Five Channels,MI,,,,,,,
971,1705,Foote,44.43538,-83.4407,MI,EXCLUDE,WAT,Foote,MI,,,,,,,
972,1706,Gaylord - Consumers,45.0306,-84.7039,MI,EXCLUDE,NG,Gaylord,MI,,,,,,,
973,1707,Hardy,43.48662,-85.6299,MI,EXCLUDE,WAT,Hardy,MI,,,,,,,
974,1708,Hodenpyl,44.36286,-85.82,MI,EXCLUDE,WAT,Hodenpyl,MI,,,,,,,
975,1710,J H Campbell,42.9103,-86.2007,MI,COALST,SUB,J H Campbell,MI,,,,,,,
976,1712,Loud,44.4631,-83.7208,MI,EXCLUDE,WAT,Loud,MI,,,,,,,
977,1713,Ludington,43.8942,-86.4447,MI,EXCLUDE,WAT,Ludington,MI,,,,,,,
978,1714,Mio,44.66111,-84.1317,MI,EXCLUDE,WAT,Mio,MI,,,,,,,
979,1715,Palisades,42.323,-86.3146,MI,EXCLUDE,NUC,Palisades,MI,,,,,,,
980,1716,Rogers,43.613,-85.4795,MI,EXCLUDE,WAT,Rogers,MI,,,,,,,
981,1718,Straits,45.76686,-84.7566,MI,EXCLUDE,NG,Straits,MI,,,,,,,
982,1719,Thetford,43.15675,-83.6286,MI,EXCLUDE,NG,Thetford,MI,,,,,,,
983,1720,J C Weadock,43.63993,-83.8447,MI,COALST,SUB,J C Weadock,MI,,,,,,,
984,1722,Webber,42.9528,-84.9025,MI,EXCLUDE,WAT,Webber,MI,,,,,,,
985,1723,J R Whiting,41.79211,-83.4495,MI,COALST,SUB,J R Whiting,MI,,,,,,,
986,1725,Colfax,42.65865,-84.0952,MI,EXCLUDE,DFO,Colfax,MI,,,,,,,
987,1726,Conners Creek,42.3592,-82.9597,MI,EXCLUDE,DFO,Conners Creek,MI,,,,,,,
988,1727,Dayton (MI),42.1758,-83.5336,MI,EXCLUDE,DFO,Dayton,MI,,,,,,,
989,1728,Delray,42.2947,-83.1019,MI,EXCLUDE,NG,Delray,MI,,,,,,,
990,1729,Fermi,41.9631,-83.2581,MI,EXCLUDE,NUC,Fermi,MI,,,,,,,
991,1730,Hancock,42.5497,-83.4425,MI,EXCLUDE,NG,Hancock,MI,,,,,,,
992,1731,Harbor Beach,43.8519,-82.6436,MI,COALST,BIT,Harbor Beach,MI,,,,,,,
993,1732,Marysville,42.9256,-82.4606,MI,EXCLUDE,BIT,Marysville,MI,,,,,,,
994,1733,Monroe (MI),41.8906,-83.3464,MI,COALST,SUB,Monroe,MI,,,,,,,
995,1734,Northeast (MI),42.45,-83.0381,MI,EXCLUDE,NG,Northeast,MI,,,,,,,
996,1735,Oliver,43.8264,-83.2383,MI,EXCLUDE,DFO,Oliver,MI,,,,,,,
997,1737,Placid,42.7106,-83.4569,MI,EXCLUDE,DFO,Placid 12,MI,,,,,,,
998,1739,Putnam (MI),42.7108,-83.4561,MI,EXCLUDE,DFO,Putnam,MI,,,,,,,
999,1740,River Rouge,42.2739,-83.1119,MI,OGST,NG,River Rouge,MI,,,,,,,
1000,1741,Slocum,42.1225,-83.185,MI,EXCLUDE,DFO,Slocum,MI,,,,,,,
1001,1743,St Clair,42.7642,-82.4719,MI,COALST,SUB,St Clair,MI,,,,,,,
1002,1744,Superior,42.2639,-83.6422,MI,EXCLUDE,DFO,Superior,MI,,,,,,,
1003,1745,Trenton Channel,42.1217,-83.1808,MI,COALST,SUB,Trenton Channel,MI,,,,,,,
1004,1746,Wilmot,43.4566,-83.1889,MI,EXCLUDE,DFO,Wilmot,MI,,,,,,,
1005,1750,Manistique,45.95501,-86.2563,MI,EXCLUDE,DFO,Manistique,MI,,,,,,,
1006,1751,Edison Sault,46.5162,-84.3729,MI,EXCLUDE,WAT,Edison Sault,MI,,,,,,,
1007,1753,Berrien Springs,41.9439,-86.3289,MI,EXCLUDE,WAT,Berrien Springs,MI,,,,,,,
1008,1754,Buchanan (MI),41.83957,-86.3511,MI,EXCLUDE,WAT,Buchanan,MI,,,,,,,
1009,1756,Saxon Falls,46.5392,-90.3742,WI,EXCLUDE,WAT,Saxon Falls,MI,,,,,,,
1010,1757,Superior Falls,46.5646,-90.4161,MI,EXCLUDE,WAT,Superior Falls,MI,,,,,,,
1011,1760,Constantine,41.8436,-85.6694,MI,EXCLUDE,WAT,Constantine,MI,,,,,,,
1012,1761,Mottville,41.8056,-85.7505,MI,EXCLUDE,WAT,Mottville,MI,,,,,,,
1013,1769,Presque Isle,46.5789,-87.395,MI,EXCLUDE,BIT,Presque Isle,MI,,,,,,,
1014,1771,Escanaba,45.77167,-87.0639,MI,EXCLUDE,BIT,Escanaba,MI,,,,,,,
1015,1772,John H Warden,46.7553,-88.4558,MI,EXCLUDE,WDS,John H Warden,MI,,,,,,,
1016,1773,Prickett,46.7261,-88.6625,MI,EXCLUDE,WAT,Prickett,MI,,,,,,,
1017,1774,Victoria Dam,46.6964,-89.2089,MI,EXCLUDE,WAT,Victoria,MI,,,,,,,
1018,1775,Brule,45.9472,-88.2189,WI,EXCLUDE,WAT,Brule,WI,,,,,,,
1019,1776,Chalk Hill,45.5136,-87.8011,MI,EXCLUDE,WAT,Chalk Hill,MI,,,,,,,
1020,1777,Hemlock Falls,46.1311,-88.225,MI,EXCLUDE,WAT,Hemlock Falls,MI,,,,,,,
1021,1778,Kingsford,45.80796,-88.1251,MI,EXCLUDE,WAT,Kingsford,MI,,,,,,,
1022,1780,Michigamme Falls,45.9553,-88.1958,MI,EXCLUDE,WAT,Michigamme Falls,MI,,,,,,,
1023,1781,Peavy Falls,45.99078,-88.2105,MI,EXCLUDE,WAT,Peavy Falls,MI,,,,,,,
1024,1784,Twin Falls (MI),45.8719,-88.0694,MI,EXCLUDE,WAT,Twin Falls,MI,,,,,,,
1025,1785,Way Dam,46.1592,-88.2353,MI,EXCLUDE,WAT,Way Dam,MI,,,,,,,
1026,1786,White Rapids,45.48208,-87.8022,MI,EXCLUDE,WAT,White Rapids,MI,,,,,,,
1027,1787,Grand Rapids,45.3547,-87.6494,MI,EXCLUDE,WAT,Grand Rapids,MI,,,,,,,
1028,1818,Clinton,42.0725,-83.9714,MI,EXCLUDE,DFO,Clinton,MI,,,,,,,
1029,1819,Coldwater,41.93222,-84.9955,MI,EXCLUDE,DFO,Coldwater,MI,,,,,,,
1030,1821,Crystal Falls,46.10628,-88.3345,MI,EXCLUDE,WAT,Crystal Falls,MI,,,,,,,
1031,1822,Mistersky,42.3039,-83.0903,MI,EXCLUDE,NG,Mistersky,MI,,,,,,,
1032,1825,J B Sims,43.0706,-86.235,MI,COALST,BIT,J B Sims,MI,,,,,,,
1033,1826,Grand Haven Diesel Plant,43.1006,-86.2366,MI,EXCLUDE,NG,Grand Haven Diesel Plant,MI,,,,,,,
1034,1827,Hart,43.7067,-86.4367,MI,EXCLUDE,DFO,Hart,MI,,,,,,,
1035,1829,Hillsdale,41.9061,-84.6319,MI,EXCLUDE,DFO,Hillsdale,MI,,,,,,,
1036,1830,James De Young,42.7956,-86.1133,MI,EXCLUDE,BIT,James De Young,MI,,,,,,,
1037,1831,Eckert Station,42.71839,-84.5581,MI,COALST,SUB,Eckert Station,MI,,,,,,,
1038,1832,Erickson Station,42.69222,-84.6572,MI,COALST,SUB,Erickson Station,MI,,,,,,,
1039,1837,Lowell,42.935,-85.3378,MI,EXCLUDE,NG,Lowell,MI,,,,,,,
1040,1840,Plant Four,46.57597,-87.4036,MI,EXCLUDE,DFO,Plant Four,MI,,,,,,,
1041,1842,James R Smith,46.57164,-87.4105,MI,EXCLUDE,WAT,James R Smith,MI,,,,,,,
1042,1843,Shiras,46.5306,-87.3922,MI,EXCLUDE,BIT,Shiras,MI,,,,,,,
1043,1844,Marshall (MI),42.2717,-84.9411,MI,EXCLUDE,WAT,Marshall,MI,,,,,,,
1044,1846,Newberry,46.5933,-85.8183,MI,EXCLUDE,DFO,Newberry,MI,,,,,,,
1045,1848,Norway (MI),45.7889,-87.9058,MI,EXCLUDE,WAT,Norway,MI,,,,,,,
1046,1851,Frank Jenkins,42.8644,-84.9031,MI,EXCLUDE,DFO,Frank Jenkins,MI,,,,,,,
1047,1852,St Louis,43.4019,-84.6014,MI,EXCLUDE,DFO,St Louis,MI,,,,,,,
1048,1853,Main Street (MI),43.7289,-83.4367,MI,EXCLUDE,NG,Main Street,MI,,,,,,,
1049,1855,Sturgis City Diesel Plant,41.7992,-85.4256,MI,EXCLUDE,DFO,Sturgis City  Diesel Plant,MI,,,,,,,
1050,1856,Hydro Plant,41.9711,-85.5381,MI,EXCLUDE,WAT,Hydro Plant,MI,,,,,,,
1051,1865,Saint Marys Falls,46.50625,-84.3493,MI,EXCLUDE,WAT,Saint Marys Falls,MI,,,,,,,
1052,1866,Wyandotte,42.2081,-83.1453,MI,EXCLUDE,BIT,Wyandotte,MI,,,,,,,
1053,1867,Zeeland,42.8067,-86.0558,MI,EXCLUDE,NG,Zeeland,MI,,,,,,,
1054,1868,Dafter,46.3292,-84.3847,MI,EXCLUDE,DFO,Dafter,MI,,,,,,,
1055,1871,Kleber,45.39198,-84.3333,MI,EXCLUDE,WAT,Kleber,MI,,,,,,,
1056,1873,Tower,45.36282,-84.295,MI,EXCLUDE,DFO,Tower,MI,,,,,,,
1057,1874,Caro,43.4878,-83.3881,MI,EXCLUDE,DFO,Caro,MI,,,,,,,
1058,1875,Ubly,43.6806,-82.9478,MI,EXCLUDE,DFO,Ubly,MI,,,,,,,
1059,1877,George Johnson,43.8393,-85.426,MI,EXCLUDE,NG,George Johnson,MI,,,,,,,
1060,1879,Scottville,43.955,-86.293611,MI,EXCLUDE,DFO,Scottville,MI,,,,,,,
1061,1880,Claude Vandyke,42.731,-85.8551,MI,EXCLUDE,NG,Claude Vandyke,MI,,,,,,,
1062,1881,Vestaburg,43.4016,-84.9141,MI,EXCLUDE,DFO,Vestaburg,MI,,,,,,,
1063,1888,Fox Lake,43.6728,-94.7075,MN,EXCLUDE,NG,Fox Lake,MN,,,,,,,
1064,1889,Hills,43.52887,-96.3647,MN,EXCLUDE,DFO,Hills,MN,,,,,,,
1065,1891,Syl Laskin,47.5306,-92.1619,MN,COALST,SUB,Syl Laskin,MN,,,,,,,
1066,1892,Blanchard,45.8614,-94.3592,MN,EXCLUDE,WAT,Blanchard,MN,,,,,,,
1067,1893,Clay Boswell,47.2611,-93.6528,MN,COALST,SUB,Clay Boswell,MN,,,,,,,
1068,1894,Fond Du Lac,46.66677,-92.2939,MN,EXCLUDE,WAT,Fond Du Lac,MN,,,,,,,
1069,1895,Knife Falls,46.72663,-92.4486,MN,EXCLUDE,WAT,Knife Falls,MN,,,,,,,
1070,1896,Little Falls (MN),45.97501,-94.3691,MN,EXCLUDE,WAT,Little Falls,MN,,,,,,,
1071,1897,M L Hibbard,46.73533,-92.1517,MN,EXCLUDE,RFO,M L Hibbard,MN,,,,,,,
1072,1898,Pillager,46.31603,-94.4849,MN,EXCLUDE,WAT,Pillager,MN,,,,,,,
1073,1899,Scanlon,46.70913,-92.4217,MN,EXCLUDE,WAT,Scanlon,MN,,,,exclude,retired,,
1074,1900,Sylvan,46.305,-94.3775,MN,EXCLUDE,WAT,Sylvan,MN,,,,,,,
1075,1901,Thomson,46.655,-92.3333,MN,EXCLUDE,WAT,Thomson,MN,,,,,,,
1076,1902,Winton,47.9344,-91.7639,MN,EXCLUDE,WAT,Winton,MN,,,,,,,
1077,1904,Black Dog,44.8108,-93.2501,MN,EXCLUDE,SUB,Black Dog,MN,,,,,,,
1078,1910,Granite City,45.5756,-94.1408,MN,EXCLUDE,NG,Granite City,MN,,,,,,,
1079,1911,Hennepin Island,44.98236,-93.2542,MN,EXCLUDE,WAT,Hennepin Island,MN,,,,,,,
1080,1912,High Bridge,44.9314,-93.1117,MN,EXCLUDE,SUB,High Bridge,MN,,,,,,,
1081,1913,Inver Hills,44.781,-93.042,MN,EXCLUDE,NG,Inver Hills,MN,,,,,,,
1082,1914,Key City,44.1974,-94.0078,MN,EXCLUDE,NG,Key City,MN,,,,,,,
1083,1915,Allen S King,45.03,-92.7786,MN,COALST,SUB,Allen S King,MN,,,,,,,
1084,1918,Minnesota Valley,44.80278,-95.5269,MN,EXCLUDE,NG,Minnesota Valley,MN,,,,,,,
1085,1922,Monticello Nuclear Facility,45.3338,-93.8493,MN,EXCLUDE,NUC,Monticello,MN,,,,,,,
1086,1925,Prairie Island,44.622,-92.6333,MN,EXCLUDE,NUC,Prairie Island,MN,,,,,,,
1087,1926,Red Wing,44.5692,-92.5169,MN,EXCLUDE,MSW,Red Wing,MN,,,,,,,
1088,1927,Riverside (MN),45.0203,-93.2753,MN,NGCC,NG,Riverside,MN,,,,,,,
1089,1929,St James,43.62167,-95.6789,MN,EXCLUDE,DFO,St James,MN,,,,,,,
1090,1932,West Fairbault,44.26972,-93.2906,MN,EXCLUDE,NG,West Fairbault,MN,,,,,,,
1091,1934,Wilmarth,44.1967,-94.0009,MN,EXCLUDE,MSW,Wilmarth,MN,,,,,,,
1092,1943,Hoot Lake,46.29064,-96.0433,MN,EXCLUDE,SUB,Hoot Lake,MN,,,,,,,
1093,1956,Adrian,43.63917,-95.9436,MN,EXCLUDE,DFO,Adrian,MN,,,,,,,
1094,1958,Alexandria,45.88917,-95.3797,MN,EXCLUDE,DFO,Alexandria,MN,,,,,,,
1095,1960,Austin Downtown,43.67064,-92.9693,MN,EXCLUDE,NG,Austin Downtown,MN,,,,,,,
1096,1961,Austin Northeast,43.7014,-92.9626,MN,OGST,NG,Austin Northeast,MN,,,,,,,
1097,1964,Benson City of,45.31444,-95.6028,MN,EXCLUDE,DFO,Benson City of,MN,,,,,,,
1098,1966,Blooming Prairie,43.9225,-93.1247,MN,EXCLUDE,DFO,Blooming Prairie,MN,,,,,,,
1099,1967,Blue Earth,43.6375,-94.1017,MN,EXCLUDE,DFO,Blue Earth,MN,,,,,,,
1100,1969,Delano,45.04138,-93.7905,MN,EXCLUDE,DFO,Delano,MN,,,,,,,
1101,1970,Detroit Lakes,46.8175,-95.8433,MN,EXCLUDE,DFO,Detroit Lakes,MN,,,,,,,
1102,1971,Elk River City of,45.3158,-93.5781,MN,EXCLUDE,DFO,Elk River City of,MN,,,,,,,
1103,1972,Fairfax,44.5278,-94.7217,MN,EXCLUDE,DFO,Fairfax,MN,,,,,,,
1104,1973,Fairmont (MN),43.6579,-94.4647,MN,EXCLUDE,NG,Fairmont,MN,,,,,,,
1105,1975,Glencoe,44.7709,-94.1582,MN,EXCLUDE,DFO,Glencoe,MN,,,,,,,
1106,1976,Grand Marais,47.7758,-90.3392,MN,EXCLUDE,DFO,Grand Marais,MN,,,,,,,
1107,1977,Granite Falls,44.81169,-95.5346,MN,EXCLUDE,WAT,Granite Falls,MN,,,,,,,
1108,1979,Hibbing,47.4294,-92.935,MN,EXCLUDE,SUB,Hibbing,MN,,,,,,,
1109,1980,Hutchinson Plant,44.89574,-94.3684,MN,EXCLUDE,NG,Hutchinson Plant #1,MN,,,,,,,
1110,1982,Janesville,44.1122,-93.6944,MN,EXCLUDE,DFO,Janesville,MN,,,,,,,
1111,1983,Kenyon Municipal,44.2689,-92.9714,MN,EXCLUDE,DFO,Kenyon Municipal,MN,,,,,,,
1112,1985,Lake Crystal,44.10689,-94.2197,MN,EXCLUDE,DFO,Lake Crystal,MN,,,,,,,
1113,1987,Lanesboro,43.72003,-91.9777,MN,EXCLUDE,WAT,Lanesboro,MN,,,,,,,
1114,1989,Litchfield,45.115,-94.5281,MN,EXCLUDE,DFO,Litchfield,MN,,,,,,,
1115,1990,Luverne,43.65444,-96.2019,MN,EXCLUDE,NG,Luverne,MN,,,,,,,
1116,1993,Marshall (MN),44.44659,-95.7921,MN,EXCLUDE,DFO,Marshall,MN,,,,,,,
1117,1994,Melrose,45.675,-94.8153,MN,EXCLUDE,DFO,Melrose,MN,,,,,,,
1118,1995,Moorhead,46.85361,-96.7311,MN,EXCLUDE,DFO,Moorhead,MN,,,,,,,
1119,1996,Moose Lake,46.4489,-92.7814,MN,EXCLUDE,DFO,Moose Lake,MN,,,,,,,
1120,1997,Mora,45.8958,-93.2942,MN,EXCLUDE,NG,Mora,MN,,,,,,,
1121,1998,Mountain Lake,43.9405,-94.9434,MN,EXCLUDE,DFO,Mountain Lake,MN,,,,,,,
1122,1999,New Prague,44.5403,-93.5806,MN,EXCLUDE,NG,New Prague,MN,,,,,,,
1123,2001,New Ulm,44.3159,-94.4581,MN,EXCLUDE,NG,New Ulm,MN,,,,,,,
1124,2002,North Branch (MN),45.5017,-92.9686,MN,EXCLUDE,DFO,North Branch,MN,,,,,,,
1125,2003,Owatonna,44.0833,-93.23,MN,EXCLUDE,NG,Owatonna,MN,,,,,,,
1126,2004,Preston (MN),43.6722,-92.0847,MN,EXCLUDE,DFO,Preston,MN,,,,,,,
1127,2005,Princeton (MN),45.5731,-93.5761,MN,EXCLUDE,DFO,Princeton,MN,,,,,,,
1128,2007,Rochester Hydro,44.21298,-92.4802,MN,EXCLUDE,WAT,Rochester Hydro,MN,,,,,,,
1129,2008,Silver Lake,44.02818,-92.4604,MN,EXCLUDE,BIT,Silver Lake,MN,,,,,,,
1130,2009,Redwood Falls,44.5431,-95.1178,MN,EXCLUDE,WAT,Redwood Falls,MN,,,,,,,
1131,2011,Sleepy Eye,44.2981,-94.5744,MN,EXCLUDE,DFO,Sleepy Eye,MN,,,,,,,
1132,2012,Springfield (MN),44.2447,-94.9758,MN,EXCLUDE,NG,Springfield,MN,,,,,,,
1133,2013,Spring Valley,43.6889,-92.3956,MN,EXCLUDE,DFO,Spring Valley,MN,,,,,,,
1134,2014,Thief River Falls,48.11426,-96.1792,MN,EXCLUDE,WAT,Thief River Falls,MN,,,,,,,
1135,2015,Truman,43.82842,-94.4369,MN,EXCLUDE,DFO,Truman,MN,,,,,,,
1136,2016,Two Harbors,47.01857,-91.6601,MN,EXCLUDE,DFO,Two Harbors,MN,,,,,,,
1137,2018,Virginia,47.52243,-92.541,MN,EXCLUDE,SUB,Virginia,MN,,,,,,,
1138,2020,Wells IC,43.74453,-93.7241,MN,EXCLUDE,DFO,Wells,MN,,,,,,,
1139,2021,Westbrook,44.0399,-95.4429,MN,EXCLUDE,DFO,Westbrook,MN,,,,,,,
1140,2022,Willmar,45.12171,-95.0532,MN,EXCLUDE,SUB,Willmar,MN,,,,,,,
1141,2023,Windom,43.86811,-95.1144,MN,EXCLUDE,DFO,Windom,MN,,,,,,,
1142,2024,Worthington,43.63349,-95.6092,MN,EXCLUDE,DFO,Worthington,MN,,,,,,,
1143,2038,Cambridge CT,45.601,-93.2081,MN,EXCLUDE,DFO,Cambridge CT,MN,,,,,,,
1144,2039,Elk River,45.2968,-93.5584,MN,EXCLUDE,MSW,Elk River,MN,,,,,,,
1145,2042,Maple Lake,45.22907,-94.0097,MN,EXCLUDE,DFO,Maple Lake,MN,,,,,,,
1146,2046,Eaton,31.3294,-89.2681,MS,OGST,NG,Eaton,MS,,,,,,,
1147,2047,Chevron Oil,30.34,-88.4919,MS,EXCLUDE,NG,Chevron Oil,MS,,,,,,,
1148,2048,Sweatt,32.2925,-88.7461,MS,OGST,NG,Sweatt,MS,,,,,,,
1149,2049,Jack Watson,30.4392,-89.0286,MS,OGST,NG,Jack Watson,MS,,,,,,,
1150,2050,Baxter Wilson,32.2831,-90.9306,MS,OGST,NG,Baxter Wilson,MS,,,,,,,
1151,2051,Delta,33.7947,-90.7139,MS,OGST,NG,Delta,MS,,,,,,,
1152,2052,Natchez,31.5987,-91.3464,MS,EXCLUDE,NG,Natchez,MS,,,,,,,
1153,2053,Rex Brown,32.35695,-90.213,MS,EXCLUDE,NG,Rex Brown,MS,,,,,,,
1154,2059,L L Wilkins,34.1845,-90.5627,MS,EXCLUDE,NG,L L Wilkins,MS,,,,,,,
1155,2060,Third Street,34.205,-90.5778,MS,EXCLUDE,NG,Third Street,MS,,,,,,,
1156,2062,Henderson,33.51732,-90.2097,MS,EXCLUDE,NG,Henderson,MS,,,,,,,
1157,2063,Wright,33.51658,-90.1833,MS,EXCLUDE,NG,Wright,MS,,,,,,,
1158,2067,Yazoo,32.8458,-90.4211,MS,EXCLUDE,NG,Yazoo,MS,,,,,,,
1159,2068,Benndale,30.8889,-88.8054,MS,EXCLUDE,NG,Benndale,MS,,,,,,,
1160,2070,Moselle,31.528,-89.3004,MS,NGCC,NG,Moselle,MS,,,,,,,
1161,2071,Paulding,32.03016,-89.0856,MS,EXCLUDE,DFO,Paulding,MS,,,,,,,
1162,2076,Asbury,37.36132,-94.5893,MO,COALST,SUB,Asbury,MO,,,,,,,
1163,2078,2078,2078,2078,2078,EXCLUDE,NG,Grand Avenue,MO,,,,,,,
1164,2079,Hawthorn,39.1306,-94.4778,MO,COALST,SUB,Hawthorn,MO,,,,,,,
1165,2080,Montrose,38.3114,-93.9348,MO,COALST,SUB,Montrose,MO,didn't have consumption,,,,,,
1166,2081,Northeast (MO),39.1228,-94.5606,MO,EXCLUDE,DFO,Northeast,MO,,,,,,,
1167,2082,Fairgrounds,38.5935,-92.2206,MO,EXCLUDE,DFO,Fairgrounds,MO,,,,,,,
1168,2083,Kirksville,40.22453,-92.5849,MO,EXCLUDE,NG,Kirksville,MO,,,,,,,
1169,2090,Nevada,37.8503,-94.3444,MO,EXCLUDE,DFO,Nevada,MO,,,,,,,
1170,2092,Ralph Green,38.78758,-94.2777,MO,EXCLUDE,NG,Ralph Green,MO,,,,,,,
1171,2094,Sibley,39.17832,-94.1844,MO,COALST,SUB,Sibley,MO,,,,,,,
1172,2096,Viaduct,37.25722,-89.5642,MO,EXCLUDE,NG,Viaduct,MO,,,,,,,
1173,2098,Lake Road (MO),39.7246,-94.8773,MO,EXCLUDE,NG,Lake Road,MO,,,,,,,
1174,2099,Niangua,37.9385,-92.8477,MO,EXCLUDE,WAT,Niangua,MO,,,,,,,
1175,2102,Howard Bend,38.6818,-90.54,MO,EXCLUDE,DFO,Howard Bend,MO,,,,,,,
1176,2103,Labadie,38.56224,-90.8377,MO,COALST,SUB,Labadie,MO,,,,,,,
1177,2104,Meramec,38.4017,-90.3358,MO,COALST,SUB,Meramec,MO,,,,,,,
1178,2106,Osage Dam,38.2044,-92.6239,MO,EXCLUDE,WAT,Osage,MO,,,,,,,
1179,2107,Sioux,38.91548,-90.2902,MO,COALST,SUB,Sioux,MO,,,,,,,
1180,2108,Taum Sauk,37.52083,-90.8347,MO,EXCLUDE,WAT,Taum Sauk,MO,,,,,,,
1181,2113,Albany,40.2478,-94.3303,MO,EXCLUDE,DFO,Albany,MO,,,,,,,
1182,2114,Bethany,40.2619,-94.0403,MO,EXCLUDE,DFO,Bethany,MO,,,,,,,
1183,2115,Butler,38.26441,-94.3444,MO,EXCLUDE,DFO,Butler,MO,,,,,,,
1184,2120,Carrollton,39.3617,-93.4956,MO,EXCLUDE,DFO,Carrollton,MO,,,,,,,
1185,2121,Carthage,37.1653,-94.3089,MO,EXCLUDE,NG,Carthage,MO,,,,,,,
1186,2122,Chillicothe,39.78339,-93.5641,MO,EXCLUDE,BIT,Chillicothe,MO,,,,,,,
1187,2123,Columbia (MO),38.96465,-92.3168,MO,EXCLUDE,BIT,Columbia,MO,,,,,,,
1188,2124,Stockton Hydro,37.6936,-93.7691,MO,EXCLUDE,WAT,Stockton,MO,,,,,,,
1189,2125,Fayette,39.1406,-92.68,MO,EXCLUDE,DFO,Fayette,MO,,,,,,,
1190,2126,Fulton (MO),38.8681,-91.9478,MO,EXCLUDE,NG,Fulton,MO,,,,,,,
1191,2127,Gallatin (MO),39.9144,-93.9619,MO,EXCLUDE,DFO,Gallatin,MO,,,,,,,
1192,2131,Higginsville,39.07332,-93.7147,MO,EXCLUDE,DFO,Higginsville,MO,,,,,,,
1193,2132,Blue Valley,39.0919,-94.3261,MO,EXCLUDE,BIT,Blue Valley,MO,,,,,,,
1194,2134,Jackson Square,39.09457,-94.4115,MO,EXCLUDE,DFO,Jackson Square,MO,,,,,,,
1195,2135,Station H,39.1067,-94.3804,MO,EXCLUDE,NG,Station H,MO,,,,,,,
1196,2136,Station I,39.05595,-94.393,MO,EXCLUDE,DFO,Station I,MO,,,,,,,
1197,2137,Jackson (MO),37.3847,-89.6606,MO,EXCLUDE,DFO,Jackson,MO,,,,,,,
1198,2138,Kahoka,40.4225,-91.7206,MO,EXCLUDE,DFO,Kahoka,MO,,,,,,,
1199,2139,Kennett,36.2431,-90.0495,MO,EXCLUDE,DFO,Kennett,MO,,,,,,,
1200,2140,La Plata,40.0122,-92.5075,MO,EXCLUDE,DFO,La Plata,MO,,,,,,,
1201,2141,Macon,39.7378,-92.4689,MO,EXCLUDE,DFO,Macon,MO,,,,,,,
1202,2142,Malden,36.5531,-89.9682,MO,EXCLUDE,DFO,Malden,MO,,,,,,,
1203,2144,Marshall (MO),39.1228,-93.2064,MO,EXCLUDE,NG,Marshall,MO,,,,,,,
1204,2145,Memphis,40.375,-92.125,MO,EXCLUDE,DFO,Memphis,MO,,,,,,,
1205,2146,Monroe (MO),39.6525,-91.7994,MO,EXCLUDE,DFO,Monroe,MO,,,,,,,
1206,2148,Odessa,38.99785,-93.9657,MO,EXCLUDE,DFO,Odessa,MO,,,,,,,
1207,2149,Owensville,38.3361,-91.4964,MO,EXCLUDE,DFO,Owensville,MO,,,,,,,
1208,2150,Palmyra Municipal,39.7961,-91.5556,MO,EXCLUDE,DFO,Palmyra Municipal,MO,,,,,,,
1209,2158,Coleman,36.8785,-89.6214,MO,EXCLUDE,DFO,Coleman,MO,,,,,,,
1210,2161,James River Power Station,37.10861,-93.2619,MO,EXCLUDE,SUB,James River Power Station,MO,,,,,,,
1211,2162,Main Street,37.2094,-93.2967,MO,EXCLUDE,DFO,Main Street,MO,,,,,,,
1212,2163,Trenton Diesel,40.0661,-93.6042,MO,EXCLUDE,DFO,Trenton Diesel,MO,,,,,,,
1213,2164,Unionville City of,40.47674,-93.01,MO,EXCLUDE,DFO,Unionville City of,MO,,,,,,,
1214,2165,Vandalia,39.2036,-91.861,MO,EXCLUDE,DFO,Vandalia,MO,,,,,,,
1215,2166,Table Rock,36.597,-93.3086,MO,EXCLUDE,WAT,Table Rock,MO,,,,,,,
1216,2167,New Madrid,36.5147,-89.5617,MO,COALST,SUB,New Madrid,MO,,,,,,,
1217,2168,Thomas Hill,39.5522,-92.6381,MO,COALST,SUB,Thomas Hill,MO,,,,,,,
1218,2169,Chamois,38.6839,-91.7558,MO,EXCLUDE,BIT,Chamois,MO,,,,,,,
1219,2171,Missouri City,39.23153,-94.308,MO,EXCLUDE,BIT,Missouri City,MO,,,,,,,
1220,2176,Glendive GT,47.0539,-104.74,MT,EXCLUDE,NG,Glendive GT,MT,,,,,,,
1221,2177,Miles City GT,46.4112,-105.795,MT,EXCLUDE,NG,Miles City GT,MT,,,,,,,
1222,2181,Black Eagle,47.52133,-111.261,MT,EXCLUDE,WAT,Black Eagle,MT,,,,,,,
1223,2182,Cochrane,47.5375,-111.195,MT,EXCLUDE,WAT,Cochrane,MT,,,,,,,
1224,2185,Hauser,46.76594,-111.887,MT,EXCLUDE,WAT,Hauser,MT,,,,,,,
1225,2186,Holter,46.9915,-112.005,MT,EXCLUDE,WAT,Holter,MT,,,,,,,
1226,2187,J E Corette Plant,45.77562,-108.481,MT,COALST,SUB,J E Corette Plant,MT,,,,,,,
1227,2188,Kerr,47.6777,-114.234,MT,EXCLUDE,WAT,Kerr,MT,,,,,,,
1228,2190,Milltown,46.86972,-113.878,MT,EXCLUDE,WAT,Milltown,MT,,,,,,,
1229,2191,Morony,47.58174,-111.061,MT,EXCLUDE,WAT,Morony,MT,,,,,,,
1230,2192,Mystic,45.22574,-109.762,MT,EXCLUDE,WAT,Mystic,MT,,,,,,,
1231,2193,Rainbow (MT),47.5344,-111.205,MT,EXCLUDE,WAT,Rainbow,MT,,,,,,,
1232,2194,Ryan,47.56994,-111.123,MT,EXCLUDE,WAT,Ryan,MT,,,,,,,
1233,2195,Thompson Falls,47.59316,-115.358,MT,EXCLUDE,WAT,Thompson Falls,MT,,,,,,,
1234,2196,Old Faithful,44.4533,-110.835,WY,EXCLUDE,DFO,Old Faithful,WY,,,,,,,
1235,2199,Noxon Rapids,47.95389,-115.734,MT,EXCLUDE,WAT,Noxon Rapids,MT,,,,,,,
1236,2203,Hungry Horse,48.34152,-114.014,MT,EXCLUDE,WAT,Hungry Horse,MT,,,,,,,
1237,2204,Yellowtail,45.30741,-107.958,MT,EXCLUDE,WAT,Yellowtail,MT,,,,,,,
1238,2214,Ansley,41.3528,-99.4978,NE,EXCLUDE,NG,Ansley,NE,,,,,,,
1239,2215,Auburn,40.3883,-95.8464,NE,EXCLUDE,NG,Auburn,NE,,,,,,,
1240,2216,Arnold,41.42389,-100.194,NE,EXCLUDE,DFO,Arnold,NE,,,,,,,
1241,2217,Beaver City,40.1381,-99.8272,NE,EXCLUDE,DFO,Beaver City,NE,,,,,,,
1242,2221,Broken Bow,41.4031,-99.6392,NE,EXCLUDE,DFO,Broken Bow,NE,,,,,,,
1243,2222,Burwell,41.9144,-98.9906,NE,EXCLUDE,DFO,Burwell,NE,,,,,,,
1244,2223,Cambridge,40.2267,-100.136,NE,EXCLUDE,DFO,Cambridge,NE,,,,,,,
1245,2225,Campbell Village,40.3717,-98.7236,NE,EXCLUDE,DFO,Campbell Village,NE,,,,,,,
1246,2226,Canaday,40.6942,-99.7011,NE,OGST,NG,Canaday,NE,,,,,,,
1247,2227,Jeffrey,40.95941,-100.398,NE,EXCLUDE,WAT,Jeffrey,NE,,,,,,,
1248,2228,Johnson,40.6936,-99.8178,NE,EXCLUDE,WAT,Johnson 1,NE,,,,,,,
1249,2229,Johnson,40.6839,-99.7447,NE,EXCLUDE,WAT,Johnson 2,NE,,,,,,,
1250,2230,Chappell,41.1056,-102.47,NE,EXCLUDE,DFO,Chappell,NE,,,,,,,
1251,2231,Crete,40.6253,-96.9558,NE,EXCLUDE,DFO,Crete,NE,,,,,,,
1252,2232,Curtis,40.6325,-100.515,NE,EXCLUDE,NG,Curtis,NE,,,,,,,
1253,2233,David City,41.25465,-97.1192,NE,EXCLUDE,NG,David City,NE,,,,,,,
1254,2234,Deshler,40.1408,-97.7239,NE,EXCLUDE,DFO,Deshler,NE,,,,,,,
1255,2235,Emerson,42.2764,-96.7289,NE,EXCLUDE,NG,Emerson,NE,,,,,,,
1256,2236,Fairbury,40.13387,-97.1843,NE,EXCLUDE,NG,Fairbury,NE,,,,,,,
1257,2237,Falls City,40.055,-95.6083,NE,EXCLUDE,DFO,Falls City,NE,,,,,,,
1258,2238,Franklin (NE),40.0953,-98.9544,NE,EXCLUDE,NG,Franklin,NE,,,,,,,
1259,2240,Lon Wright,41.4281,-96.4623,NE,EXCLUDE,NG,Lon Wright,NE,,,,,,,
1260,2241,C W Burdick,40.9228,-98.3269,NE,EXCLUDE,NG,C W Burdick,NE,,,,,,,
1261,2243,Don Henry,40.58316,-98.4201,NE,EXCLUDE,NG,Don Henry,NE,,,,,,,
1262,2244,North Denver,40.59884,-98.3886,NE,EXCLUDE,NG,North Denver,NE,,,,,,,
1263,2248,Kimball,41.235,-103.66,NE,EXCLUDE,NG,Kimball,NE,,,,,,,
1264,2249,Laurel,42.43054,-97.0908,NE,EXCLUDE,NG,Laurel,NE,,,,,,,
1265,2250,J Street,40.80788,-96.7107,NE,EXCLUDE,NG,J Street,NE,,,,,,,
1266,2253,Lyons,41.9375,-96.4731,NE,EXCLUDE,DFO,Lyons,NE,,,,,,,
1267,2255,Nebraska City #,40.6806,-95.8475,NE,EXCLUDE,NG,Nebraska City # 1,NE,,,,,,,
1268,2256,Syracuse #,40.6756,-96.1778,NE,EXCLUDE,NG,Syracuse # 2,NE,,,,,,,
1269,2260,Columbus,41.4639,-97.3283,NE,EXCLUDE,WAT,Columbus,NE,,,,,,,
1270,2265,Hallam,40.5589,-96.7847,NE,EXCLUDE,NG,Hallam,NE,,,,,,,
1271,2266,Hebron,40.18793,-97.5779,NE,EXCLUDE,DFO,Hebron,NE,,,,,,,
1272,2268,Kearney,40.70351,-99.1008,NE,EXCLUDE,WAT,Kearney,NE,,,,,,,
1273,2271,McCook,40.2214,-100.651,NE,EXCLUDE,DFO,McCook,NE,,,,,,,
1274,2273,Monroe (NE),41.4872,-97.6078,NE,EXCLUDE,WAT,Monroe,NE,,,,,,,
1275,2274,North Platte,41.0864,-100.759,NE,EXCLUDE,WAT,North Platte,NE,,,,,,,
1276,2277,Sheldon,40.5589,-96.7847,NE,COALST,SUB,Sheldon,NE,,,,,,,
1277,2278,Spencer Hydro,42.80934,-98.6563,NE,EXCLUDE,WAT,Spencer,NE,,,,,,,
1278,2280,Mullen,41.9158,-101.134,NE,EXCLUDE,DFO,Mullen,NE,,,,,,,
1279,2289,Fort Calhoun,41.52052,-96.0775,NE,EXCLUDE,NUC,Fort Calhoun,NE,,,,,,,
1280,2290,Jones Street,41.25149,-95.9227,NE,EXCLUDE,DFO,Jones Street,NE,,,,,,,
1281,2291,North Omaha,41.32909,-95.9447,NE,COALST,SUB,North Omaha,NE,,,,,,,
1282,2292,Sarpy County,41.17059,-95.9706,NE,EXCLUDE,NG,Sarpy County,NE,,,,,,,
1283,2294,Ord,41.6025,-98.9283,NE,EXCLUDE,DFO,Ord,NE,,,,,,,
1284,2295,Oxford (NE),40.2581,-99.6108,NE,EXCLUDE,NG,Oxford,NE,,,,,,,
1285,2296,Pender,42.0903,-96.7769,NE,EXCLUDE,NG,Pender,NE,,,,,,,
1286,2297,Plainview Muncipal Power,42.35,-97.7906,NE,EXCLUDE,DFO,Plainview Muncipal Power,NE,,,,,,,
1287,2299,Red Cloud,40.0964,-98.5228,NE,EXCLUDE,DFO,Red Cloud,NE,,,,,,,
1288,2300,Sargent,41.6392,-99.3742,NE,EXCLUDE,DFO,Sargent,NE,,,,,,,
1289,2302,Sidney (NE),41.14563,-102.978,NE,EXCLUDE,NG,Sidney,NE,,,,,,,
1290,2303,Spalding,41.68138,-98.3676,NE,EXCLUDE,WAT,Spalding,NE,,,,,,,
1291,2305,Stuart (NE),42.5714,-99.1394,NE,EXCLUDE,DFO,Stuart,NE,,,,,,,
1292,2306,Sutherland IC,41.1578,-101.129,NE,EXCLUDE,DFO,Sutherland,NE,,,,,,,
1293,2308,Tecumseh,40.3664,-96.19,NE,EXCLUDE,DFO,Tecumseh,NE,,,,,,,
1294,2310,Wahoo,41.2089,-96.6217,NE,EXCLUDE,NG,Wahoo,NE,,,,,,,
1295,2311,Wakefield,42.2644,-96.8756,NE,EXCLUDE,NG,Wakefield,NE,,,,,,,
1296,2312,Wayne IC,42.2278,-97.0183,NE,EXCLUDE,DFO,Wayne,NE,,,,,,,
1297,2313,West Point Municipal,41.8292,-96.7161,NE,EXCLUDE,NG,West Point Municipal,NE,,,,,,,
1298,2315,Wilber,40.4797,-96.9604,NE,EXCLUDE,DFO,Wilber,NE,,,,,,,
1299,2316,Wisner,41.9903,-96.9203,NE,EXCLUDE,DFO,Wisner,NE,,,,,,,
1300,2322,Clark (NVE),36.0875,-115.051,NV,EXCLUDE,NG,Clark,NV,,,,,,,
1301,2324,Reid Gardner,36.65735,-114.633,NV,COALST,BIT,Reid Gardner,NV,,,,,,,
1302,2326,Sunrise,36.1384,-115.036,NV,EXCLUDE,NG,Sunrise,NV,,,,,,,
1303,2330,Fort Churchill,39.1281,-119.132,NV,OGST,NG,Fort Churchill,NV,,,,,,,
1304,2336,Tracy,39.5625,-119.525,NV,NGCC,NG,Tracy,NV,,,,,,,
1305,2341,Mohave,35.1458,-114.592,NV,COALST,SUB,Mohave,NV,,,,,,,
1306,2349,Comerford,44.32505,-72.001,NH,EXCLUDE,WAT,Comerford,NH,,,,,,,
1307,2351,S C Moore,44.3356,-71.8742,NH,EXCLUDE,WAT,S C Moore,NH,,,,,,,
1308,2352,Vernon Dam,42.77165,-72.5146,VT,EXCLUDE,WAT,Vernon,VT,,,,,,,
1309,2353,Wilder,43.66793,-72.3036,VT,EXCLUDE,WAT,Wilder,VT,,,,,,,
1310,2354,Amoskeag,43.00223,-71.4721,NH,EXCLUDE,WAT,Amoskeag,NH,,,,,,,
1311,2355,Ayers Island,43.59785,-71.7177,NH,EXCLUDE,WAT,Ayers Island,NH,,,,,,,
1312,2356,Eastman Falls,43.44722,-71.6579,NH,EXCLUDE,WAT,Eastman Falls,NH,,,,,,,
1313,2357,Garvins Falls,43.16552,-71.5094,NH,EXCLUDE,WAT,Garvins Falls,NH,,,,,,,
1314,2358,Gorham,44.40828,-71.1954,NH,EXCLUDE,WAT,Gorham,NH,,,,,,,
1315,2359,Hooksett,43.1017,-71.4657,NH,EXCLUDE,WAT,Hooksett,NH,,,,,,,
1316,2360,Jackman,43.11055,-71.9489,NH,EXCLUDE,WAT,Jackman,NH,,,,,,,
1317,2362,Lost Nation,44.59512,-71.4944,NH,EXCLUDE,DFO,Lost Nation,NH,,,,,,,
1318,2364,Merrimack,43.1411,-71.4692,NH,COALST,BIT,Merrimack,NH,,,,,,,
1319,2367,Schiller,43.0978,-70.7842,NH,COALST,BIT,Schiller,NH,,,,,,,
1320,2368,Smith (NH),44.46946,-71.1781,NH,EXCLUDE,WAT,Smith,NH,,,,,,,
1321,2369,White Lake,43.8478,-71.2069,NH,EXCLUDE,JF,White Lake,NH,,,,,,,
1322,2378,B L England,39.2908,-74.6364,NJ,COALST,BIT,B L England,NJ,,,,,,,
1323,2379,Carlls Corner,39.4547,-75.2014,NJ,EXCLUDE,NG,Carlls Corner,NJ,,,,,,,
1324,2380,Cedar Station,39.6893,-74.2618,NJ,EXCLUDE,DFO,Cedar Station,NJ,,,,,,,
1325,2382,Middle Station,39.0269,-74.8772,NJ,EXCLUDE,KER,Middle Station,NJ,,,,,,,
1326,2383,Missouri Avenue,39.3662,-74.4441,NJ,EXCLUDE,KER,Missouri Avenue,NJ,,,,,,,
1327,2384,Deepwater,39.6831,-75.5083,NJ,OGST,NG,Deepwater,NJ,,,,,,,
1328,2385,Werner,40.49124,-74.281,NJ,EXCLUDE,DFO,Werner,NJ,,,,,,,
1329,2388,Oyster Creek,39.8143,-74.2062,NJ,EXCLUDE,NUC,Oyster Creek,NJ,,,,,,,
1330,2390,Sayreville,40.47653,-74.3523,NJ,EXCLUDE,DFO,Sayreville,NJ,,,,,,,
1331,2393,Gilbert,40.56583,-75.1639,NJ,NGCC,NG,Gilbert,NJ,,,,,,,
1332,2397,PSEG Bayonne Generating Station,40.66083,-74.0853,NJ,EXCLUDE,KER,PSEG Bayonne Generating Station,NJ,,,,,,,
1333,2398,Bergen Generating Station,40.8375,-74.0244,NJ,NGCC,NG,Bergen Generating Station,NJ,,,,,,,
1334,2399,PSEG Burlington Generating Station,40.07661,-74.8792,NJ,EXCLUDE,NG,PSEG Burlington Generating Station,NJ,,,,,,,
1335,2400,PSEG Edison Generating Station,40.4911,-74.3956,NJ,EXCLUDE,NG,PSEG Edison Generating Station,NJ,,,,,,,
1336,2401,PSEG Essex Generating Station,40.7372,-74.1206,NJ,EXCLUDE,NG,PSEG Essex Generating Station,NJ,,,,,,,
1337,2403,PSEG Hudson Generating Station,40.7478,-74.0722,NJ,EXCLUDE,NG,PSEG Hudson Generating Station,NJ,,,,,,,
1338,2404,PSEG Kearny Generating Station,40.73728,-74.0965,NJ,EXCLUDE,NG,PSEG Kearny Generating Station,NJ,,,,,,,
1339,2406,PSEG Linden Generating Station,40.6217,-74.2072,NJ,EXCLUDE,RFO,PSEG Linden Generating Station,NJ,,,,,,,
1340,2408,PSEG Mercer Generating Station,40.1792,-74.7339,NJ,COALST,BIT,PSEG Mercer Generating Station,NJ,,,,,,,
1341,2409,PSEG National Park Generating Station,39.86,-75.1853,NJ,EXCLUDE,KER,PSEG National Park Generating Station,NJ,,,,,,,
1342,2410,PSEG Salem Generating Station,39.4625,-75.5358,NJ,EXCLUDE,NUC,PSEG Salem Generating Station,NJ,,,,,,,
1343,2411,PSEG Sewaren Generating Station,40.5558,-74.2469,NJ,OGST,NG,PSEG Sewaren Generating Station,NJ,,,,,,,
1344,2434,Howard Down,39.4889,-75.02,NJ,EXCLUDE,RFO,Howard Down,NJ,,,,,,,
1345,2442,Four Corners,36.69,-108.481,NM,COALST,SUB,Four Corners,Navajo,,,,,,,
1346,2444,Rio Grande,31.8047,-106.547,NM,OGST,NG,Rio Grande,NM,,,,,,,
1347,2446,Maddox,32.71422,-103.301,NM,OGST,NG,Maddox,NM,,,,,,,
1348,2447,Las Vegas,35.5997,-105.227,NM,EXCLUDE,DFO,Las Vegas,NM,,,,,,,
1349,2450,Reeves,35.171,-106.602,NM,OGST,NG,Reeves,NM,,,,,,,
1350,2451,San Juan,36.8006,-108.439,NM,COALST,BIT,San Juan,NM,,,,,,,
1351,2453,Carlsbad,32.418,-104.216,NM,EXCLUDE,NG,Carlsbad,NM,,,,,,,
1352,2454,Cunningham,32.7131,-103.353,NM,OGST,NG,Cunningham,NM,,,,,,,
1353,2465,Animas,36.72514,-108.192,NM,EXCLUDE,NG,Animas,NM,,,,,,,
1354,2468,Raton,36.89246,-104.441,NM,EXCLUDE,BIT,Raton,NM,,,,,,,
1355,2469,Tucumcari,35.16806,-103.718,NM,EXCLUDE,DFO,Tucumcari,NM,,,,,,,
1356,2475,2475,2475,2475,2475,EXCLUDE,NG,Algodones,NM,,,,,,,
